{"index": {"_id":"21617"}}
{"id":"21617","name":"강릉원주대학교","address":"강원도 강릉시 죽헌길 7 (지변동, 강릉원주대학교)","location": {"lon":"128.870217435979","lat":"37.7657331772579"}}
{"index": {"_id":"21618"}}
{"id":"21618","name":"강릉원주대학교","address":"강원도 원주시 흥업면 남원로 150 (흥업리, 강릉원주대학교원주캠퍼스)","location": {"lon":"127.922180834517","lat":"37.3051998482115"}}
{"index": {"_id":"21619"}}
{"id":"21619","name":"강원대학교","address":"강원도 춘천시 강원대학길 1 (효자동, 강원대학교)","location": {"lon":"127.74837984446","lat":"37.8679956160244"}}
{"index": {"_id":"21620"}}
{"id":"21620","name":"강원대학교","address":"강원도 삼척시 중앙로 346 (교동, 강원대학교삼척캠퍼스)","location": {"lon":"129.160054612758","lat":"37.4508028312414"}}
{"index": {"_id":"21621"}}
{"id":"21621","name":"경북대학교","address":"대구광역시 북구 대학로 80 (산격동, 경북대학교)","location": {"lon":"128.614322336303","lat":"35.8890974884948"}}
{"index": {"_id":"21622"}}
{"id":"21622","name":"경상국립대학교","address":"경상남도 진주시 진주대로 501 (가좌동, 경상대학교)","location": {"lon":"128.098001405271","lat":"35.1567141271262"}}
{"index": {"_id":"21623"}}
{"id":"21623","name":"공주대학교","address":"충청남도 공주시 공주대학로 56 (신관동, 공주대학교)","location": {"lon":"127.138669492909","lat":"36.466848433479"}}
{"index": {"_id":"21624"}}
{"id":"21624","name":"군산대학교","address":"전라북도 군산시 대학로 558 (미룡동, 군산대학교)","location": {"lon":"126.680356828107","lat":"35.9503457085054"}}
{"index": {"_id":"21625"}}
{"id":"21625","name":"금오공과대학교","address":"경상북도 구미시 대학로 61 (양호동, 금오공과대학교)","location": {"lon":"128.388119702872","lat":"36.1456601455539"}}
{"index": {"_id":"21626"}}
{"id":"21626","name":"목포대학교","address":"전라남도 무안군 청계면 영산로 1666 (도림리, 목포대학교)","location": {"lon":"126.440210194715","lat":"34.9103065584639"}}
{"index": {"_id":"21627"}}
{"id":"21627","name":"목포해양대학교","address":"전라남도 목포시 해양대학로 91 (죽교동, 목포해양대학교)","location": {"lon":"126.366830400594","lat":"34.7917749223182"}}
{"index": {"_id":"21628"}}
{"id":"21628","name":"부경대학교","address":"부산광역시 남구 용소로 45 (대연동, 부경대학교대연캠퍼스)","location": {"lon":"129.104865521163","lat":"35.1311752099157"}}
{"index": {"_id":"21629"}}
{"id":"21629","name":"부산대학교","address":"부산광역시 금정구 부산대학로63번길 2 (장전동, 부산대학교)","location": {"lon":"129.08382445362","lat":"35.2322427971605"}}
{"index": {"_id":"21630"}}
{"id":"21630","name":"서울대학교","address":"서울특별시 관악구 관악로 1 (신림동, 서울대학교)","location": {"lon":"126.94815644252","lat":"37.4662872666604"}}
{"index": {"_id":"21631"}}
{"id":"21631","name":"순천대학교","address":"전라남도 순천시 중앙로 255 (석현동, 순천대학교)","location": {"lon":"127.480923056778","lat":"34.9667612819538"}}
{"index": {"_id":"21632"}}
{"id":"21632","name":"안동대학교","address":"경상북도 안동시 경동로 1375 (송천동, 안동대학교)","location": {"lon":"128.79756403132","lat":"36.5414384997503"}}
{"index": {"_id":"21633"}}
{"id":"21633","name":"전남대학교","address":"광주광역시 북구 용봉로 45 (용봉동, 전남대학교)","location": {"lon":"126.901101801289","lat":"35.1729465031535"}}
{"index": {"_id":"21634"}}
{"id":"21634","name":"전남대학교","address":"전라남도 여수시 대학로 50 (둔덕동, 전남대학교여수캠퍼스)","location": {"lon":"127.700518386399","lat":"34.7729957206494"}}
{"index": {"_id":"21635"}}
{"id":"21635","name":"전북대학교","address":"전라북도 전주시 덕진구 백제대로 567 (금암동, 전북대학교)","location": {"lon":"127.131588969832","lat":"35.8411382714422"}}
{"index": {"_id":"21636"}}
{"id":"21636","name":"제주대학교","address":"제주특별자치도 제주시 제주대학로 102 (아라일동, 제주대학교)","location": {"lon":"126.56429389472","lat":"33.4572369752041"}}
{"index": {"_id":"21637"}}
{"id":"21637","name":"창원대학교","address":"경상남도 창원시 의창구 창원대학로 20 (사림동, 창원대학교)","location": {"lon":"128.694816891338","lat":"35.2459596336655"}}
{"index": {"_id":"21638"}}
{"id":"21638","name":"충남대학교","address":"대전광역시 유성구 대학로 99 (궁동, 충남대학교)","location": {"lon":"127.341662059729","lat":"36.3683281154744"}}
{"index": {"_id":"21639"}}
{"id":"21639","name":"충북대학교","address":"충청북도 청주시 서원구 충대로 1 (개신동, 충북대학교)","location": {"lon":"127.455076764458","lat":"36.6300443933522"}}
{"index": {"_id":"21640"}}
{"id":"21640","name":"한국교원대학교","address":"충청북도 청주시 흥덕구 강내면 태성탑연로 250 (다락리, 한국교원대학교)","location": {"lon":"127.357362327758","lat":"36.6056617527318"}}
{"index": {"_id":"21641"}}
{"id":"21641","name":"한국체육대학교","address":"서울특별시 송파구 양재대로 1239 (방이동, 한국체육대학교)","location": {"lon":"127.132000539547","lat":"37.5199046323075"}}
{"index": {"_id":"21642"}}
{"id":"21642","name":"한국해양대학교","address":"부산광역시 영도구 태종로 727 (동삼동, 한국해양대학교)","location": {"lon":"129.087131295109","lat":"35.0744069144827"}}
{"index": {"_id":"21643"}}
{"id":"21643","name":"한국교통대학교","address":"충청북도 충주시 대소원면 대학로 50 (검단리, 한국교통대학교)","location": {"lon":"127.87276944768","lat":"36.9688466996986"}}
{"index": {"_id":"21644"}}
{"id":"21644","name":"서울과학기술대학교","address":"서울특별시 노원구 공릉로 232 (공릉동, 서울과학기술대학교)","location": {"lon":"127.076794742851","lat":"37.6330789279387"}}
{"index": {"_id":"21645"}}
{"id":"21645","name":"한경대학교","address":"경기도 안성시 중앙로 327 (석정동, 한경대학교)","location": {"lon":"127.263767089376","lat":"37.010187333414"}}
{"index": {"_id":"21646"}}
{"id":"21646","name":"한밭대학교","address":"대전광역시 유성구 동서대로 125 (덕명동, 한밭대학교)","location": {"lon":"127.305261969401","lat":"36.3452663484108"}}
{"index": {"_id":"21647"}}
{"id":"21647","name":"서울시립대학교","address":"서울특별시 동대문구 서울시립대로 163 (전농동, 서울시립대학교)","location": {"lon":"127.059988126984","lat":"37.5825775765293"}}
{"index": {"_id":"21648"}}
{"id":"21648","name":"가톨릭대학교","address":"경기도 부천시 원미구 지봉로 43 (역곡동, 가톨릭대학교성심교정)","location": {"lon":"126.798601525148","lat":"37.4875313665666"}}
{"index": {"_id":"21649"}}
{"id":"21649","name":"가톨릭대학교","address":"서울특별시 서초구 반포대로 222 (반포동, 가톨릭대학교성의교정)","location": {"lon":"127.005860604348","lat":"37.5023936158073"}}
{"index": {"_id":"21650"}}
{"id":"21650","name":"가톨릭대학교","address":"서울특별시 종로구 창경궁로 296-12 (혜화동, 가톨릭대학교성신교정)","location": {"lon":"127.004770664086","lat":"37.5849009775207"}}
{"index": {"_id":"21651"}}
{"id":"21651","name":"감리교신학대학교","address":"서울특별시 서대문구 독립문로 56 (냉천동, 감리교신학대학)","location": {"lon":"126.961892367623","lat":"37.5679167646618"}}
{"index": {"_id":"21652"}}
{"id":"21652","name":"강남대학교","address":"경기도 용인시 기흥구 강남로 40 (구갈동, 강남대학교)","location": {"lon":"127.132099903261","lat":"37.2741253924992"}}
{"index": {"_id":"21653"}}
{"id":"21653","name":"건국대학교","address":"서울특별시 광진구 능동로 120 (화양동, 건국대학교)","location": {"lon":"127.074711902268","lat":"37.539182674872"}}
{"index": {"_id":"21654"}}
{"id":"21654","name":"건국대학교(글로컬)","address":"충청북도 충주시 충원대로 268 (단월동, 건국대학교 글로컬캠퍼스)","location": {"lon":"127.912430162981","lat":"36.9487808728909"}}
{"index": {"_id":"21655"}}
{"id":"21655","name":"건양대학교","address":"충청남도 논산시 대학로 121 (내동, 건양대학교)","location": {"lon":"127.109687408926","lat":"36.1821519220811"}}
{"index": {"_id":"21656"}}
{"id":"21656","name":"건양대학교","address":"대전광역시 서구 관저동로 158 (관저동, 건양대학교병원)","location": {"lon":"127.342646778061","lat":"36.3077818180786"}}
{"index": {"_id":"21657"}}
{"id":"21657","name":"경기대학교","address":"경기도 수원시 영통구 광교산로 154-42 (이의동, 경기대학교)","location": {"lon":"127.033116715137","lat":"37.2980136931725"}}
{"index": {"_id":"21658"}}
{"id":"21658","name":"경기대학교","address":"서울특별시 서대문구 경기대로9길 24 (충정로2가, 경기대학교)","location": {"lon":"126.962224150341","lat":"37.5651946923921"}}
{"index": {"_id":"21659"}}
{"id":"21659","name":"경남대학교","address":"경상남도 창원시 마산합포구 경남대학로 7 (월영동, 경남대학교)","location": {"lon":"128.555096373971","lat":"35.184320928305"}}
{"index": {"_id":"21660"}}
{"id":"21660","name":"경동대학교","address":"강원도 고성군 토성면 봉포4길 46 (봉포리, 경동대학교)","location": {"lon":"128.556490521698","lat":"38.251594952369"}}
{"index": {"_id":"21661"}}
{"id":"21661","name":"대구한의대학교","address":"경상북도 경산시 한의대로 1 (유곡동, 대구한의대학교)","location": {"lon":"128.777349373373","lat":"35.7940191335145"}}
{"index": {"_id":"21662"}}
{"id":"21662","name":"경성대학교","address":"부산광역시 남구 수영로 309 (대연동, 경성대학교)","location": {"lon":"129.10010311307","lat":"35.1384873078988"}}
{"index": {"_id":"21663"}}
{"id":"21663","name":"가천대학교","address":"경기도 성남시 수정구 성남대로 1342 (복정동, 가천대학교)","location": {"lon":"127.12939432624","lat":"37.4512348695085"}}
{"index": {"_id":"21664"}}
{"id":"21664","name":"경일대학교","address":"경상북도 경산시 하양읍 가마실길 50 (부호리, 경일대학교)","location": {"lon":"128.802045214398","lat":"35.9110687720431"}}
{"index": {"_id":"21665"}}
{"id":"21665","name":"경주대학교","address":"경상북도 경주시 태종로 188 (효현동, 경주대학교)","location": {"lon":"129.163239444101","lat":"35.8292658457446"}}
{"index": {"_id":"21666"}}
{"id":"21666","name":"경희대학교","address":"서울특별시 동대문구 경희대로 26 (회기동, 경희대학교)","location": {"lon":"127.054890960564","lat":"37.5939491407769"}}
{"index": {"_id":"21667"}}
{"id":"21667","name":"계명대학교","address":"대구광역시 달서구 달구벌대로 1095 (신당동, 계명대학교성서캠퍼스)","location": {"lon":"128.484579003028","lat":"35.8559055953885"}}
{"index": {"_id":"21668"}}
{"id":"21668","name":"고려대학교","address":"서울특별시 성북구 안암로 145 (안암동5가, 고려대학교안암캠퍼스(인문사회계))","location": {"lon":"127.031698331241","lat":"37.5887034223667"}}
{"index": {"_id":"21669"}}
{"id":"21669","name":"고려대학교(세종)","address":"세종특별자치시 조치원읍 세종로 2511 (서창리, 고려대학교세종캠퍼스)","location": {"lon":"127.291002698042","lat":"36.6116946201537"}}
{"index": {"_id":"21670"}}
{"id":"21670","name":"고신대학교","address":"부산광역시 영도구 와치로 194 (동삼동, 고신대학교)","location": {"lon":"129.062181859243","lat":"35.0794694244323"}}
{"index": {"_id":"21671"}}
{"id":"21671","name":"가톨릭관동대학교","address":"강원도 강릉시 범일로579번길 24 (내곡동, 가톨릭관동대학교)","location": {"lon":"128.873681611316","lat":"37.7373221158143"}}
{"index": {"_id":"21672"}}
{"id":"21672","name":"광신대학교","address":"광주광역시 북구 양산택지소로 36 (본촌동, 광신대학교)","location": {"lon":"126.884836430774","lat":"35.2160186500036"}}
{"index": {"_id":"21673"}}
{"id":"21673","name":"광운대학교","address":"서울특별시 노원구 광운로 20 (월계동, 광운대학교)","location": {"lon":"127.058338066917","lat":"37.6193203481648"}}
{"index": {"_id":"21674"}}
{"id":"21674","name":"광주가톨릭대학교","address":"전라남도 나주시 남평읍 중남길 12-25 (남석리, 광주가톨릭대학교)","location": {"lon":"126.863886747018","lat":"35.0154351829836"}}
{"index": {"_id":"21675"}}
{"id":"21675","name":"광주여자대학교","address":"광주광역시 광산구 광주여대길 40 (산정동)","location": {"lon":"126.796464879132","lat":"35.1631363940803"}}
{"index": {"_id":"21676"}}
{"id":"21676","name":"국민대학교","address":"서울특별시 성북구 정릉로 77 (정릉동, 국민대학교)","location": {"lon":"126.998520644814","lat":"37.6102878430906"}}
{"index": {"_id":"21677"}}
{"id":"21677","name":"케이씨대학교","address":"서울특별시 강서구 까치산로24길 47 (화곡동, 케이씨대학교)","location": {"lon":"126.854156524867","lat":"37.5486853052598"}}
{"index": {"_id":"21678"}}
{"id":"21678","name":"극동대학교","address":"충청북도 음성군 감곡면 대학길 76-32 (왕장리, 극동대학교)","location": {"lon":"127.641870971257","lat":"37.1282549251378"}}
{"index": {"_id":"21679"}}
{"id":"21679","name":"나사렛대학교","address":"충청남도 천안시 서북구 월봉로 48 (쌍용동, 나사렛대학교)","location": {"lon":"127.119477919956","lat":"36.7983475274385"}}
{"index": {"_id":"21680"}}
{"id":"21680","name":"단국대학교","address":"경기도 용인시 수지구 죽전로 152 (죽전동, 단국대학교)","location": {"lon":"127.132535935195","lat":"37.3211938747541"}}
{"index": {"_id":"21681"}}
{"id":"21681","name":"대구대학교","address":"경상북도 경산시 진량읍 대구대로 201 (내리리, 대구대학교경산캠퍼스)","location": {"lon":"128.842813264293","lat":"35.904538973767"}}
{"index": {"_id":"21682"}}
{"id":"21682","name":"대구예술대학교","address":"경상북도 칠곡군 가산면 다부거문1길 202 (다부리, 대구예술대학교)","location": {"lon":"128.508091368043","lat":"36.0314193188668"}}
{"index": {"_id":"21683"}}
{"id":"21683","name":"대구가톨릭대학교","address":"경상북도 경산시 하양읍 하양로 13-13 (금락리, 대구가톨릭대학교)","location": {"lon":"128.807584697953","lat":"35.9091304681441"}}
{"index": {"_id":"21684"}}
{"id":"21684","name":"세한대학교","address":"전라남도 영암군 삼호읍 녹색로 1113 (산호리, 세한대학교)","location": {"lon":"126.483263979897","lat":"34.7453774187142"}}
{"index": {"_id":"21685"}}
{"id":"21685","name":"대신대학교","address":"경상북도 경산시 경청로222길 33 (백천동, 대신대학교)","location": {"lon":"128.745137321159","lat":"35.8039447889529"}}
{"index": {"_id":"21686"}}
{"id":"21686","name":"대전가톨릭대학교","address":"세종특별자치시 전의면 가톨릭대학로 30 (신방리, 대전가톨릭대학교)","location": {"lon":"127.197010251582","lat":"36.6545676995903"}}
{"index": {"_id":"21687"}}
{"id":"21687","name":"대전대학교","address":"대전광역시 동구 대학로 62 (용운동, 대전대학교)","location": {"lon":"127.459001869396","lat":"36.336696167799"}}
{"index": {"_id":"21688"}}
{"id":"21688","name":"대진대학교","address":"경기도 포천시 호국로 1007 (선단동, 대진대학교)","location": {"lon":"127.157554125254","lat":"37.8738102149097"}}
{"index": {"_id":"21689"}}
{"id":"21689","name":"서울기독대학교","address":"서울특별시 은평구 갈현로4길 26-2 (신사동, 서울기독대학교)","location": {"lon":"126.91219242164","lat":"37.6007568622066"}}
{"index": {"_id":"21690"}}
{"id":"21690","name":"덕성여자대학교","address":"서울특별시 도봉구 삼양로144길 33 (쌍문동, 덕성여자대학교)","location": {"lon":"127.015834944956","lat":"37.6524704146763"}}
{"index": {"_id":"21691"}}
{"id":"21691","name":"동국대학교","address":"서울특별시 중구 필동로1길 30 (장충동2가, 동국대학교)","location": {"lon":"126.998737605491","lat":"37.5589366401553"}}
{"index": {"_id":"21692"}}
{"id":"21692","name":"동국대학교(경주)","address":"경상북도 경주시 동대로 123 (석장동, 동국대학교경주캠퍼스)","location": {"lon":"129.191031372845","lat":"35.864795280212"}}
{"index": {"_id":"21693"}}
{"id":"21693","name":"동덕여자대학교","address":"서울특별시 성북구 화랑로13길 60 (하월곡동, 동덕여자대학교)","location": {"lon":"127.041176301847","lat":"37.6068148327539"}}
{"index": {"_id":"21694"}}
{"id":"21694","name":"동서대학교","address":"부산광역시 사상구 주례로 47 (주례동, 동서대학교)","location": {"lon":"129.007038894696","lat":"35.1460786494674"}}
{"index": {"_id":"21695"}}
{"id":"21695","name":"동신대학교","address":"전라남도 나주시 동신대길 67 (대호동)","location": {"lon":"126.7179925226","lat":"35.0496248791451"}}
{"index": {"_id":"21696"}}
{"id":"21696","name":"동아대학교","address":"부산광역시 사하구 낙동대로550번길 37 (하단동, 동아대학교)","location": {"lon":"128.96808496718","lat":"35.1188093910081"}}
{"index": {"_id":"21697"}}
{"id":"21697","name":"동양대학교","address":"경상북도 영주시 풍기읍 동양대로 145 (산법리, 동양대학교)","location": {"lon":"128.529936995112","lat":"36.8858482031431"}}
{"index": {"_id":"21698"}}
{"id":"21698","name":"동의대학교","address":"부산광역시 부산진구 엄광로 176 (가야동, 동의대학교)","location": {"lon":"129.036309884005","lat":"35.1443184545334"}}
{"index": {"_id":"21699"}}
{"id":"21699","name":"루터대학교","address":"경기도 용인시 기흥구 금화로82번길 20 (상갈동, 루터대학교)","location": {"lon":"127.113373362229","lat":"37.2644343800955"}}
{"index": {"_id":"21700"}}
{"id":"21700","name":"명지대학교","address":"경기도 용인시 처인구 명지로 116 (남동, 명지대학교용인캠퍼스)","location": {"lon":"127.190183727516","lat":"37.2218072639192"}}
{"index": {"_id":"21701"}}
{"id":"21701","name":"명지대학교","address":"서울특별시 서대문구 거북골로 34 (남가좌동, 명지대학교)","location": {"lon":"126.921348530876","lat":"37.5803770223812"}}
{"index": {"_id":"21702"}}
{"id":"21702","name":"목원대학교","address":"대전광역시 서구 도안북로 88 (도안동, 목원대학교)","location": {"lon":"127.337446736796","lat":"36.328866131856"}}
{"index": {"_id":"21703"}}
{"id":"21703","name":"배재대학교","address":"대전광역시 서구 배재로 155-40 (도마동, 배재대학교)","location": {"lon":"127.366074460163","lat":"36.3232382774419"}}
{"index": {"_id":"21704"}}
{"id":"21704","name":"부산가톨릭대학교","address":"부산광역시 금정구 오륜대로 57 (부곡동, 부산가톨릭대학교)","location": {"lon":"129.096871971614","lat":"35.2446753071785"}}
{"index": {"_id":"21705"}}
{"id":"21705","name":"부산외국어대학교","address":"부산광역시 금정구 금샘로485번길 65 (남산동, 부산외국어대학교)","location": {"lon":"129.08055329643","lat":"35.2661894921034"}}
{"index": {"_id":"21706"}}
{"id":"21706","name":"삼육대학교","address":"서울특별시 노원구 화랑로 815 (공릉동, 삼육대학교)","location": {"lon":"127.108850343184","lat":"37.643357369067"}}
{"index": {"_id":"21707"}}
{"id":"21707","name":"상명대학교","address":"서울특별시 종로구 홍지문2길 20 (홍지동, 상명대학교)","location": {"lon":"126.955159496571","lat":"37.604108905882"}}
{"index": {"_id":"21708"}}
{"id":"21708","name":"상지대학교","address":"강원도 원주시 상지대길 83 (우산동, 상지대학교)","location": {"lon":"127.929915065919","lat":"37.3691192870384"}}
{"index": {"_id":"21709"}}
{"id":"21709","name":"서강대학교","address":"서울특별시 마포구 백범로 35 (신수동, 서강대학교)","location": {"lon":"126.943024997981","lat":"37.5514693075541"}}
{"index": {"_id":"21710"}}
{"id":"21710","name":"서경대학교","address":"서울특별시 성북구 서경로 124 (정릉동, 서경대학교)","location": {"lon":"127.013565764354","lat":"37.6154147804327"}}
{"index": {"_id":"21711"}}
{"id":"21711","name":"서울신학대학교","address":"경기도 부천시 소사구 호현로489번길 52 (소사본동, 서울신학대학교)","location": {"lon":"126.790003509195","lat":"37.4783249527733"}}
{"index": {"_id":"21712"}}
{"id":"21712","name":"서울여자대학교","address":"서울특별시 노원구 화랑로 621 (공릉동, 서울여자대학교)","location": {"lon":"127.091621159803","lat":"37.6273815936787"}}
{"index": {"_id":"21713"}}
{"id":"21713","name":"서울장신대학교","address":"경기도 광주시 경안로 145 (경안동, 서울장신대학교)","location": {"lon":"127.245540620832","lat":"37.4091640890664"}}
{"index": {"_id":"21714"}}
{"id":"21714","name":"서원대학교","address":"충청북도 청주시 서원구 무심서로 377-3 (모충동, 서원대학교)","location": {"lon":"127.482117612634","lat":"36.6259797378128"}}
{"index": {"_id":"21715"}}
{"id":"21715","name":"선문대학교","address":"충청남도 아산시 탕정면 선문로221번길 70 (갈산리, 선문대학교)","location": {"lon":"127.075732161892","lat":"36.8010404471004"}}
{"index": {"_id":"21716"}}
{"id":"21716","name":"성결대학교","address":"경기도 안양시 만안구 성결대학로 53 (안양동, 성결대학교)","location": {"lon":"126.928810441112","lat":"37.379865723701"}}
{"index": {"_id":"21717"}}
{"id":"21717","name":"성공회대학교","address":"서울특별시 구로구 연동로 320 (항동, 성공회대학교)","location": {"lon":"126.826163535057","lat":"37.4875235978289"}}
{"index": {"_id":"21718"}}
{"id":"21718","name":"성균관대학교","address":"서울특별시 종로구 성균관로 25-2 (명륜3가, 성균관대학교)","location": {"lon":"126.993115116294","lat":"37.5872284082508"}}
{"index": {"_id":"21719"}}
{"id":"21719","name":"성신여자대학교","address":"서울특별시 성북구 보문로34다길 2 (돈암동, 성신여자대학교)","location": {"lon":"127.02214561649","lat":"37.5916524767249"}}
{"index": {"_id":"21720"}}
{"id":"21720","name":"세명대학교","address":"충청북도 제천시 세명로 65 (신월동, 세명대학교)","location": {"lon":"128.19615854481","lat":"37.173842353131"}}
{"index": {"_id":"21721"}}
{"id":"21721","name":"세종대학교","address":"서울특별시 광진구 능동로 209 (군자동, 세종대학교)","location": {"lon":"127.07318364213","lat":"37.5516093089619"}}
{"index": {"_id":"21722"}}
{"id":"21722","name":"수원가톨릭대학교","address":"경기도 화성시 봉담읍 왕림1길 67 (왕림리, 수원가톨릭대학교)","location": {"lon":"126.933337951201","lat":"37.1958155074953"}}
{"index": {"_id":"21723"}}
{"id":"21723","name":"수원대학교","address":"경기도 화성시 봉담읍 와우안길 17 (와우리, 수원대학교)","location": {"lon":"126.979480352479","lat":"37.2101174847642"}}
{"index": {"_id":"21724"}}
{"id":"21724","name":"숙명여자대학교","address":"서울특별시 용산구 청파로47길 90 (청파동2가, 숙명여자대학교)","location": {"lon":"126.965412466897","lat":"37.5452862346703"}}
{"index": {"_id":"21725"}}
{"id":"21725","name":"순천향대학교","address":"충청남도 아산시 신창면 순천향로 22 (읍내리, 순천향대학교)","location": {"lon":"126.928936482966","lat":"36.7683515094009"}}
{"index": {"_id":"21726"}}
{"id":"21726","name":"숭실대학교","address":"서울특별시 동작구 상도로 369 (상도동, 숭실대학교)","location": {"lon":"126.955157917408","lat":"37.4964289688636"}}
{"index": {"_id":"21727"}}
{"id":"21727","name":"신라대학교","address":"부산광역시 사상구 백양대로700번길 140 (괘법동, 신라대학교)","location": {"lon":"128.99779692981","lat":"35.1720524953802"}}
{"index": {"_id":"21728"}}
{"id":"21728","name":"아신대학교","address":"경기도 양평군 옥천면 경강로 1276 아신대학교","location": {"lon":"127.428928259716","lat":"37.5112170735026"}}
{"index": {"_id":"21729"}}
{"id":"21729","name":"아주대학교","address":"경기도 수원시 영통구 월드컵로 206 (원천동, 아주대학교)","location": {"lon":"127.043660039022","lat":"37.2830563756566"}}
{"index": {"_id":"21730"}}
{"id":"21730","name":"안양대학교","address":"경기도 안양시 만안구 삼덕로37번길 22 (안양동, 안양대학교)","location": {"lon":"126.92052628235","lat":"37.3917681912577"}}
{"index": {"_id":"21731"}}
{"id":"21731","name":"안양대학교","address":"인천광역시 강화군 불은면 중앙로 602-14 (삼성리, 안양대학교강화캠퍼스)","location": {"lon":"126.444711004732","lat":"37.7110033177909"}}
{"index": {"_id":"21732"}}
{"id":"21732","name":"연세대학교","address":"서울특별시 서대문구 연세로 50 (신촌동, 연세대학교)","location": {"lon":"126.943916239886","lat":"37.5660508394158"}}
{"index": {"_id":"21733"}}
{"id":"21733","name":"연세대학교(미래)","address":"강원도 원주시 흥업면 연세대길 1 연세대학교 미래캠퍼스","location": {"lon":"127.904328263667","lat":"37.2748178663996"}}
{"index": {"_id":"21734"}}
{"id":"21734","name":"영남대학교","address":"경상북도 경산시 대학로 280 (대동, 영남대학교)","location": {"lon":"128.75218013148","lat":"35.8304916312343"}}
{"index": {"_id":"21735"}}
{"id":"21735","name":"영남신학대학교","address":"경상북도 경산시 진량읍 봉회1길 26 (봉회리, 영남신학대학교)","location": {"lon":"128.818066570159","lat":"35.8803963728555"}}
{"index": {"_id":"21736"}}
{"id":"21736","name":"유원대학교","address":"충청북도 영동군 영동읍 대학로 310","location": {"lon":"127.799085400924","lat":"36.1958945383408"}}
{"index": {"_id":"21737"}}
{"id":"21737","name":"영산선학대학교","address":"전라남도 영광군 백수읍 성지로 1357 (길용리)","location": {"lon":"126.441339990491","lat":"35.3273523314123"}}
{"index": {"_id":"21738"}}
{"id":"21738","name":"용인대학교","address":"경기도 용인시 처인구 용인대학로 134 (삼가동, 용인대학교)","location": {"lon":"127.170724286597","lat":"37.2278788825761"}}
{"index": {"_id":"21739"}}
{"id":"21739","name":"우석대학교","address":"전라북도 완주군 삼례읍 삼례로 443 (후정리, 우석대학교)","location": {"lon":"127.067811682884","lat":"35.9115764544703"}}
{"index": {"_id":"21740"}}
{"id":"21740","name":"울산대학교","address":"울산광역시 남구 대학로 93 (무거동, 울산대학교)","location": {"lon":"129.257425346502","lat":"35.54183711963"}}
{"index": {"_id":"21741"}}
{"id":"21741","name":"원광대학교","address":"전라북도 익산시 익산대로 460 (신동, 원광대학교)","location": {"lon":"126.960223680824","lat":"35.9717139651945"}}
{"index": {"_id":"21742"}}
{"id":"21742","name":"위덕대학교","address":"경상북도 경주시 강동면 동해대로 261 (유금리, 위덕대학교)","location": {"lon":"129.28259064119","lat":"36.016111123839"}}
{"index": {"_id":"21743"}}
{"id":"21743","name":"을지대학교","address":"대전광역시 중구 계룡로771번길 77 (목동, 을지대학교대전캠퍼스)","location": {"lon":"127.405571713904","lat":"36.3330222089918"}}
{"index": {"_id":"21744"}}
{"id":"21744","name":"을지대학교","address":"경기도 성남시 수정구 산성대로 553 (양지동, 을지대학교)","location": {"lon":"127.165146797398","lat":"37.4609789114509"}}
{"index": {"_id":"21745"}}
{"id":"21745","name":"이화여자대학교","address":"서울특별시 서대문구 이화여대길 52 (대현동, 이화여자대학교)","location": {"lon":"126.950288837762","lat":"37.5644645178259"}}
{"index": {"_id":"21746"}}
{"id":"21746","name":"인제대학교","address":"경상남도 김해시 인제로 197 (어방동, 인제대학교)","location": {"lon":"128.900515324646","lat":"35.2528100895983"}}
{"index": {"_id":"21747"}}
{"id":"21747","name":"인제대학교","address":"부산광역시 부산진구 복지로 75 (개금동, 백병원)","location": {"lon":"129.020571153957","lat":"35.1464534842515"}}
{"index": {"_id":"21748"}}
{"id":"21748","name":"인천가톨릭대학교","address":"인천광역시 연수구 송도문화로120번길 20 (송도동) 인천가톨릭대학교","location": {"lon":"126.663507651408","lat":"37.3726238502475"}}
{"index": {"_id":"21749"}}
{"id":"21749","name":"인천가톨릭대학교","address":"인천광역시 강화군 양도면 고려왕릉로 53-1 (도장리, 인천가톨릭대학교)","location": {"lon":"126.450008257437","lat":"37.6566734151903"}}
{"index": {"_id":"21750"}}
{"id":"21750","name":"인하대학교","address":"인천광역시 미추홀구 인하로 100(용현동) 인하대학교","location": {"lon":"126.651542258118","lat":"37.4514480321002"}}
{"index": {"_id":"21751"}}
{"id":"21751","name":"장로회신학대학교","address":"서울특별시 광진구 광장로5길 25-1 (광장동, 장로회신학대학교)","location": {"lon":"127.103315027061","lat":"37.5498636303997"}}
{"index": {"_id":"21752"}}
{"id":"21752","name":"전주대학교","address":"전라북도 전주시 완산구 천잠로 303 (효자동2가, 전주대학교)","location": {"lon":"127.088884123482","lat":"35.8161641666537"}}
{"index": {"_id":"21753"}}
{"id":"21753","name":"조선대학교","address":"광주광역시 동구 필문대로 309 (서석동, 조선대학교)","location": {"lon":"126.925929755143","lat":"35.1436427295862"}}
{"index": {"_id":"21754"}}
{"id":"21754","name":"중부대학교","address":"충청남도 금산군 추부면 대학로 201 (마전리, 중부대학교)","location": {"lon":"127.448703841954","lat":"36.1919714420686"}}
{"index": {"_id":"21755"}}
{"id":"21755","name":"중앙대학교","address":"경기도 안성시 대덕면 서동대로 4726 (내리, 중앙대학교)","location": {"lon":"127.228708651132","lat":"37.0004292004148"}}
{"index": {"_id":"21756"}}
{"id":"21756","name":"중앙대학교","address":"서울특별시 동작구 흑석로 84 (흑석동, 중앙대학교)","location": {"lon":"126.953833907628","lat":"37.5047267237807"}}
{"index": {"_id":"21757"}}
{"id":"21757","name":"중앙승가대학교","address":"경기도 김포시 승가로 147 (풍무동, 중앙승가대학)","location": {"lon":"126.706375309859","lat":"37.6091860168389"}}
{"index": {"_id":"21758"}}
{"id":"21758","name":"백석대학교","address":"충청남도 천안시 동남구 백석대학로 1 (안서동)","location": {"lon":"127.182520646399","lat":"36.8388372068096"}}
{"index": {"_id":"21759"}}
{"id":"21759","name":"청주대학교","address":"충청북도 청주시 청원구 대성로 298 (내덕동, 청주대학교)","location": {"lon":"127.495199134623","lat":"36.6508565012441"}}
{"index": {"_id":"21760"}}
{"id":"21760","name":"총신대학교","address":"서울특별시 동작구 사당로 143 (사당동, 총신대학교)","location": {"lon":"126.966763108256","lat":"37.4879290070931"}}
{"index": {"_id":"21761"}}
{"id":"21761","name":"추계예술대학교","address":"서울특별시 서대문구 북아현로11가길 7 (북아현동, 추계예술대학교)","location": {"lon":"126.954059321222","lat":"37.5631767195176"}}
{"index": {"_id":"21762"}}
{"id":"21762","name":"한국침례신학대학교","address":"대전광역시 유성구 북유성대로 190 (하기동, 침례신학대학)","location": {"lon":"127.323044548494","lat":"36.3847093350448"}}
{"index": {"_id":"21763"}}
{"id":"21763","name":"칼빈대학교","address":"경기도 용인시 기흥구 마북로 184 (마북동, 칼빈대학교)","location": {"lon":"127.128686425614","lat":"37.3051459316977"}}
{"index": {"_id":"21764"}}
{"id":"21764","name":"평택대학교","address":"경기도 평택시 서동대로 3825 (용이동, 평택대학교)","location": {"lon":"127.133968496931","lat":"36.9946392307399"}}
{"index": {"_id":"21765"}}
{"id":"21765","name":"차의과학대학교","address":"경기도 포천시 해룡로 120 (동교동, 포천중문의과대학) 차의과학대학교","location": {"lon":"127.137549418787","lat":"37.8560144127676"}}
{"index": {"_id":"21766"}}
{"id":"21766","name":"포항공과대학교","address":"경상북도 포항시 남구 청암로 77 (지곡동, 포항공과대학교)","location": {"lon":"129.321301170832","lat":"36.0105883055805"}}
{"index": {"_id":"21767"}}
{"id":"21767","name":"한국기술교육대학교","address":"충청남도 천안시 동남구 병천면 충절로 1600 (가전리, 한국기술교육대학교)","location": {"lon":"127.281200389603","lat":"36.765104950533"}}
{"index": {"_id":"21768"}}
{"id":"21768","name":"한국성서대학교","address":"서울특별시 노원구 동일로214길 32 (상계동, 한국성서대학교)","location": {"lon":"127.063750963519","lat":"37.6489617715837"}}
{"index": {"_id":"21769"}}
{"id":"21769","name":"한국외국어대학교","address":"서울특별시 동대문구 이문로 107 (이문동, 한국외국어대학교)","location": {"lon":"127.057942413722","lat":"37.5982966771548"}}
{"index": {"_id":"21770"}}
{"id":"21770","name":"한국항공대학교","address":"경기도 고양시 덕양구 항공대학로 76 (화전동, 한국항공대학교)","location": {"lon":"126.864172526764","lat":"37.5990163344733"}}
{"index": {"_id":"21771"}}
{"id":"21771","name":"한남대학교","address":"대전광역시 대덕구 한남로 70 (오정동, 한남대학교)","location": {"lon":"127.419951766947","lat":"36.3555640023271"}}
{"index": {"_id":"21772"}}
{"id":"21772","name":"한동대학교","address":"경상북도 포항시 북구 흥해읍 한동로 558 (남송리, 한동대학교)","location": {"lon":"129.389266058166","lat":"36.1023014256562"}}
{"index": {"_id":"21773"}}
{"id":"21773","name":"한라대학교","address":"강원도 원주시 흥업면 한라대길 28 (흥업리, 한라대학교)","location": {"lon":"127.906918959953","lat":"37.303976829171"}}
{"index": {"_id":"21774"}}
{"id":"21774","name":"한림대학교","address":"강원도 춘천시 한림대학길 1 (옥천동, 한림대학교)","location": {"lon":"127.734962063258","lat":"37.8854275477545"}}
{"index": {"_id":"21775"}}
{"id":"21775","name":"한서대학교","address":"충청남도 서산시 해미면 한서1로 46 (대곡리, 한서대학교)","location": {"lon":"126.586964768503","lat":"36.6907152767617"}}
{"index": {"_id":"21776"}}
{"id":"21776","name":"한성대학교","address":"서울특별시 성북구 삼선교로16길 116 (삼선동2가, 한성대학교)","location": {"lon":"127.010390004805","lat":"37.5832358514072"}}
{"index": {"_id":"21777"}}
{"id":"21777","name":"한세대학교","address":"경기도 군포시 한세로 30 (당정동)","location": {"lon":"126.953885673336","lat":"37.3441460362666"}}
{"index": {"_id":"21778"}}
{"id":"21778","name":"한신대학교","address":"경기도 오산시 한신대길 137 (양산동, 한신대학교)","location": {"lon":"127.027451982136","lat":"37.1925943198315"}}
{"index": {"_id":"21779"}}
{"id":"21779","name":"한양대학교","address":"서울특별시 성동구 왕십리로 222 (사근동, 한양대학교)","location": {"lon":"127.046611216789","lat":"37.5545035492027"}}
{"index": {"_id":"21780"}}
{"id":"21780","name":"한양대학교(ERICA)","address":"경기도 안산시 상록구 한양대학로 55 (사동, 한양대학교)","location": {"lon":"126.834393833262","lat":"37.2980047345996"}}
{"index": {"_id":"21781"}}
{"id":"21781","name":"서울한영대학교","address":"서울특별시 구로구 경인로 290-42 (개봉동)","location": {"lon":"126.8512499816","lat":"37.4965810660171"}}
{"index": {"_id":"21782"}}
{"id":"21782","name":"한일장신대학교","address":"전라북도 완주군 상관면 왜목로 726-15 (신리, 한일장신대학교)","location": {"lon":"127.205860465992","lat":"35.7642830072176"}}
{"index": {"_id":"21783"}}
{"id":"21783","name":"협성대학교","address":"경기도 화성시 봉담읍 최루백로 72 (상리, 협성대학교)","location": {"lon":"126.953622970263","lat":"37.2132508835744"}}
{"index": {"_id":"21784"}}
{"id":"21784","name":"호남대학교","address":"광주광역시 광산구 호남대길 120 (서봉동, 호남대학본부)","location": {"lon":"126.765040345608","lat":"35.1499676556862"}}
{"index": {"_id":"21785"}}
{"id":"21785","name":"호남신학대학교","address":"광주광역시 남구 제중로 77 (양림동, 호남신학대학교)","location": {"lon":"126.910568702512","lat":"35.1401102946897"}}
{"index": {"_id":"21786"}}
{"id":"21786","name":"호서대학교","address":"충청남도 아산시 배방읍 호서로79번길 20 (세출리, 호서대학교)","location": {"lon":"127.077106928498","lat":"36.7344630229927"}}
{"index": {"_id":"21787"}}
{"id":"21787","name":"홍익대학교","address":"서울특별시 마포구 와우산로 94 (상수동, 홍익대학교)","location": {"lon":"126.924990619497","lat":"37.5525192523979"}}
{"index": {"_id":"21788"}}
{"id":"21788","name":"가톨릭꽃동네대학교","address":"충청북도 청주시 서원구 현도면 상삼길 133 (상삼리, 꽃동네대학교)","location": {"lon":"127.402976065397","lat":"36.5219802800517"}}
{"index": {"_id":"21789"}}
{"id":"21789","name":"남부대학교","address":"광주광역시 광산구 남부대길 1 (월계동)","location": {"lon":"126.842258172223","lat":"35.2070608996015"}}
{"index": {"_id":"21790"}}
{"id":"21790","name":"예원예술대학교","address":"전라북도 임실군 신평면 창인로 117 (창인리, 예원예술학교)","location": {"lon":"127.271466710832","lat":"35.6477649162508"}}
{"index": {"_id":"21791"}}
{"id":"21791","name":"예원예술대학교","address":"경기도 양주시 은현면 예원대학로 56","location": {"lon":"127.037081511912","lat":"37.8466722472472"}}
{"index": {"_id":"21792"}}
{"id":"21792","name":"목포가톨릭대학교","address":"전라남도 목포시 영산로 697 (석현동, 목포가톨릭대학교)","location": {"lon":"126.4198974075","lat":"34.8272766768797"}}
{"index": {"_id":"21793"}}
{"id":"21793","name":"부산장신대학교","address":"경상남도 김해시 김해대로 1894-68 (구산동)","location": {"lon":"128.861718196765","lat":"35.256310877582"}}
{"index": {"_id":"21794"}}
{"id":"21794","name":"금강대학교","address":"충청남도 논산시 상월면 상월로 522 (대명리, 금강대학교)","location": {"lon":"127.189714025042","lat":"36.3068265947992"}}
{"index": {"_id":"21795"}}
{"id":"21795","name":"예수대학교","address":"전라북도 전주시 완산구 서원로 383 (중화산동1가, 예수대학교)","location": {"lon":"127.134788546126","lat":"35.8160936109445"}}
{"index": {"_id":"21796"}}
{"id":"21796","name":"한국국제대학교","address":"경상남도 진주시 문산읍 동부로 965 (상문리, 한국국제대학교)","location": {"lon":"128.19993693696","lat":"35.1758150452813"}}
{"index": {"_id":"21797"}}
{"id":"21797","name":"광주대학교","address":"광주광역시 남구 효덕로 277 (진월동, 광주대학교)","location": {"lon":"126.89616993457","lat":"35.1059036523963"}}
{"index": {"_id":"21798"}}
{"id":"21798","name":"신경대학교","address":"경기도 화성시 남양읍 남양중앙로 400-5 (남양리, 신경대학교)","location": {"lon":"126.83953419795","lat":"37.2027515359928"}}
{"index": {"_id":"21799"}}
{"id":"21799","name":"동명대학교","address":"부산광역시 남구 신선로 428 (용당동, 동명대학교)","location": {"lon":"129.101380307339","lat":"35.1246904251562"}}
{"index": {"_id":"21800"}}
{"id":"21800","name":"영산대학교","address":"경상남도 양산시 주남로 288 (주남동) 영산대학교 양산캠퍼스","location": {"lon":"129.144634800956","lat":"35.4283933160763"}}
{"index": {"_id":"21801"}}
{"id":"21801","name":"영산대학교","address":"부산광역시 해운대구 반송순환로 142 (반송동) 영산대학교 해운대캠퍼스","location": {"lon":"129.159064651628","lat":"35.2241543257141"}}
{"index": {"_id":"21802"}}
{"id":"21802","name":"대전신학대학교","address":"대전광역시 대덕구 한남로 41 (오정동, 대전신학대학교)","location": {"lon":"127.424015937587","lat":"36.3495481063766"}}
{"index": {"_id":"21803"}}
{"id":"21803","name":"중원대학교","address":"충청북도 괴산군 괴산읍 문무로 85 (동부리, 중원대학교)","location": {"lon":"127.798493849973","lat":"36.8191551494983"}}
{"index": {"_id":"21804"}}
{"id":"21804","name":"우송대학교","address":"대전광역시 동구 동대전로 171 (자양동, 우송정보대학)","location": {"lon":"127.44573302632","lat":"36.335693548807"}}
{"index": {"_id":"21805"}}
{"id":"21805","name":"김천대학교","address":"경상북도 김천시 대학로 214 (삼락동, 김천대학교)","location": {"lon":"128.081714980163","lat":"36.1399448069941"}}
{"index": {"_id":"21806"}}
{"id":"21806","name":"송원대학교","address":"광주광역시 남구 송암로 73 (송하동, 송원대학)","location": {"lon":"126.873266442573","lat":"35.1081845052901"}}
{"index": {"_id":"21807"}}
{"id":"21807","name":"경운대학교","address":"경상북도 구미시 산동면 강동로 730 (인덕리, 경운대학교)","location": {"lon":"128.468071167161","lat":"36.1716993571929"}}
{"index": {"_id":"21808"}}
{"id":"21808","name":"남서울대학교","address":"충청남도 천안시 서북구 성환읍 대학로 91 (매주리, 남서울대학교)","location": {"lon":"127.143619452225","lat":"36.9109137342107"}}
{"index": {"_id":"21809"}}
{"id":"21809","name":"초당대학교","address":"전라남도 무안군 무안읍 무안로 380 (성남리, 초당대학교)","location": {"lon":"126.470263924245","lat":"34.9800485873903"}}
{"index": {"_id":"21810"}}
{"id":"21810","name":"한국공학대학교","address":"경기도 시흥시 산기대학로 237 (정왕동, 한국산업기술대학교)","location": {"lon":"126.733539352474","lat":"37.339732743931"}}
{"index": {"_id":"21811"}}
{"id":"21811","name":"제주국제대학교","address":"제주특별자치도 제주시 516로 2870 (영평동)","location": {"lon":"126.569831091366","lat":"33.4427732522923"}}
{"index": {"_id":"21812"}}
{"id":"21812","name":"창신대학교","address":"경상남도 창원시 마산회원구 팔용로 262 (합성동, 창신대학)","location": {"lon":"128.599596124773","lat":"35.2446928950772"}}
{"index": {"_id":"21813"}}
{"id":"21813","name":"울산과학기술원","address":"울산광역시 울주군 언양읍 유니스트길 50 (반연리, 울산과학기술원)","location": {"lon":"129.187618949573","lat":"35.5773071411833"}}
{"index": {"_id":"21814"}}
{"id":"21814","name":"공주교육대학교","address":"충청남도 공주시 웅진로 27 (봉황동, 공주교육대학교)","location": {"lon":"127.119655178765","lat":"36.4452038483364"}}
{"index": {"_id":"21815"}}
{"id":"21815","name":"광주교육대학교","address":"광주광역시 북구 필문대로 55 (풍향동, 광주교육대학교)","location": {"lon":"126.925730100694","lat":"35.1647069458086"}}
{"index": {"_id":"21816"}}
{"id":"21816","name":"대구교육대학교","address":"대구광역시 남구 중앙대로 219 (대명동, 대구교육대학교)","location": {"lon":"128.587739242975","lat":"35.8514315842476"}}
{"index": {"_id":"21817"}}
{"id":"21817","name":"부산교육대학교","address":"부산광역시 연제구 교대로 24 (거제동, 부산교육대학교) 교무처","location": {"lon":"129.077081867066","lat":"35.1956935815526"}}
{"index": {"_id":"21818"}}
{"id":"21818","name":"서울교육대학교","address":"서울특별시 서초구 서초중앙로 96 (서초동, 서울교육대학교)","location": {"lon":"127.015424537648","lat":"37.4907404857731"}}
{"index": {"_id":"21819"}}
{"id":"21819","name":"경인교육대학교","address":"인천광역시 계양구 계산로 62 (계산동, 경인교육대학교)","location": {"lon":"126.718842140379","lat":"37.5367048882494"}}
{"index": {"_id":"21820"}}
{"id":"21820","name":"경인교육대학교","address":"경기도 안양시 만안구 삼막로 155 (석수동, 경인교육대학교)","location": {"lon":"126.917068252393","lat":"37.4356067014873"}}
{"index": {"_id":"21821"}}
{"id":"21821","name":"전주교육대학교","address":"전라북도 전주시 완산구 서학로 50 (동서학동, 전주교육대학교)","location": {"lon":"127.153803947535","lat":"35.8091640624342"}}
{"index": {"_id":"21822"}}
{"id":"21822","name":"진주교육대학교","address":"경상남도 진주시 진양호로369번길 3 (신안동, 진주교육대학교)","location": {"lon":"128.06793000041","lat":"35.1858108225369"}}
{"index": {"_id":"21823"}}
{"id":"21823","name":"청주교육대학교","address":"충청북도 청주시 서원구 청남로 2065 (수곡동, 청주교육대학교)","location": {"lon":"127.484009466388","lat":"36.6154291995103"}}
{"index": {"_id":"21824"}}
{"id":"21824","name":"춘천교육대학교","address":"강원도 춘천시 공지로 126 (석사동, 춘천교육대학교)","location": {"lon":"127.748514703209","lat":"37.8594867242583"}}
{"index": {"_id":"21825"}}
{"id":"21825","name":"한국방송통신대학교","address":"서울특별시 종로구 대학로 86 (동숭동, 한국방송통신대학교)","location": {"lon":"127.003290880975","lat":"37.5791954862382"}}
{"index": {"_id":"21826"}}
{"id":"21826","name":"호원대학교","address":"전라북도 군산시 임피면 호원대3길 64 (월하리, 호원대학교)","location": {"lon":"126.863787678587","lat":"35.9679261845471"}}
{"index": {"_id":"21827"}}
{"id":"21827","name":"청운대학교","address":"충청남도 홍성군 홍성읍 대학길 25 (남장리, 청운대학교)","location": {"lon":"126.664273052049","lat":"36.582338563114"}}
{"index": {"_id":"21828"}}
{"id":"21828","name":"정석대학","address":"서울특별시 강서구 오정로 576 (공항동)","location": {"lon":"126.813884120882","lat":"37.5462081658044"}}
{"index": {"_id":"21829"}}
{"id":"21829","name":"순복음총회신학교","address":"충청북도 제천시 덕산면 도전로 320 (도전리)","location": {"lon":"128.167851885448","lat":"36.9042423883697"}}
{"index": {"_id":"21830"}}
{"id":"21830","name":"경희사이버대학교","address":"서울특별시 동대문구 경희대로 26 (회기동, 경희사이버대학교)","location": {"lon":"127.054890960564","lat":"37.5939491407769"}}
{"index": {"_id":"21831"}}
{"id":"21831","name":"국제사이버대학교","address":"경기도 수원시 팔달구 경수대로 490 (인계동)","location": {"lon":"127.028223233526","lat":"37.2695937545519"}}
{"index": {"_id":"21832"}}
{"id":"21832","name":"대구사이버대학교","address":"경상북도 경산시 진량읍 대구대로 201 (내리리, 대구대학교경산캠퍼스)","location": {"lon":"128.842813264293","lat":"35.904538973767"}}
{"index": {"_id":"21833"}}
{"id":"21833","name":"부산디지털대학교","address":"부산광역시 사상구 주례로 57 (주례동, 부산디지털대학교)","location": {"lon":"129.009614631444","lat":"35.146361806536"}}
{"index": {"_id":"21834"}}
{"id":"21834","name":"서울디지털대학교","address":"서울특별시 강서구 공항대로 424 (화곡동, 서울디지털대학교)","location": {"lon":"126.854020068213","lat":"37.5550004979763"}}
{"index": {"_id":"21835"}}
{"id":"21835","name":"서울사이버대학교","address":"서울특별시 강북구 솔매로49길 60 (미아동, 서울사이버대학교)","location": {"lon":"127.027123065417","lat":"37.629843917766"}}
{"index": {"_id":"21836"}}
{"id":"21836","name":"세종사이버대학교","address":"서울특별시 광진구 군자로 121 (군자동, 세종사이버대학)","location": {"lon":"127.072886829447","lat":"37.5537274682721"}}
{"index": {"_id":"21837"}}
{"id":"21837","name":"한국열린사이버대학교","address":"서울특별시 중랑구 망우로 353, C동 9층(상봉프레미어스엠코)","location": {"lon":"127.091624142481","lat":"37.5983328190955"}}
{"index": {"_id":"21838"}}
{"id":"21838","name":"원광디지털대학교","address":"전라북도 익산시 익산대로 460 (신동, 원광디지털대학교)","location": {"lon":"126.960223680824","lat":"35.9717139651945"}}
{"index": {"_id":"21839"}}
{"id":"21839","name":"고려사이버대학교","address":"서울특별시 종로구 북촌로 106 (계동, 고려사이버대학교)","location": {"lon":"126.987063025616","lat":"37.5869442675617"}}
{"index": {"_id":"21840"}}
{"id":"21840","name":"숭실사이버대학교","address":"서울특별시 종로구 삼일대로30길 23 (익선동, BIZWELL종로오피스텔)","location": {"lon":"126.988775780571","lat":"37.574475499893"}}
{"index": {"_id":"21841"}}
{"id":"21841","name":"디지털서울문화예술대학교","address":"서울특별시 서대문구 통일로37길 60 (홍제동, 디지털서울문화예술대학교)","location": {"lon":"126.943879163212","lat":"37.5854437357557"}}
{"index": {"_id":"21842"}}
{"id":"21842","name":"한양사이버대학교","address":"서울특별시 성동구 왕십리로 220 (행당동, 한양사이버대학교)","location": {"lon":"127.047518974715","lat":"37.5571863579301"}}
{"index": {"_id":"21843"}}
{"id":"21843","name":"사이버한국외국어대학교","address":"서울특별시 동대문구 이문로 107 (이문동, 한국외국어대학교)","location": {"lon":"127.057942413722","lat":"37.5982966771548"}}
{"index": {"_id":"21844"}}
{"id":"21844","name":"화신사이버대학교","address":"부산광역시 연제구 고분로191번길 1 (연산동, 화신사이버대학교)","location": {"lon":"129.103257582645","lat":"35.1857461829433"}}
{"index": {"_id":"21845"}}
{"id":"21845","name":"글로벌사이버대학교","address":"충청남도 천안시 동남구 목천읍 교천지산길 284-88 (지산리, 글로벌사이버대학교)","location": {"lon":"127.199410531798","lat":"36.7938874628534"}}
{"index": {"_id":"21846"}}
{"id":"21846","name":"건양사이버대학교","address":"대전광역시 서구 관저동로 158 (관저동, 건양대학교병원) 건양사이버대학교","location": {"lon":"127.342646778061","lat":"36.3077818180786"}}
{"index": {"_id":"21847"}}
{"id":"21847","name":"한국과학기술원","address":"대전광역시 유성구 대학로 291 (구성동, 한국과학기술원)","location": {"lon":"127.356981924269","lat":"36.3682827819718"}}
{"index": {"_id":"21848"}}
{"id":"21848","name":"광주과학기술원","address":"광주광역시 북구 첨단과기로 123 (오룡동, 광주과학기술원)","location": {"lon":"126.842947893389","lat":"35.2268791477147"}}
{"index": {"_id":"21849"}}
{"id":"21849","name":"대구경북과학기술원","address":"대구광역시 달성군 현풍면 테크노중앙대로 333 (상리)","location": {"lon":"128.455010688046","lat":"35.7056377572321"}}
{"index": {"_id":"21850"}}
{"id":"21850","name":"한국예술종합학교","address":"서울특별시 성북구 화랑로32길 146-37 (석관동, 한국종합예술학교)","location": {"lon":"127.053940846723","lat":"37.6063581128476"}}
{"index": {"_id":"21851"}}
{"id":"21851","name":"경남도립거창대학","address":"경상남도 거창군 거창읍 거창대학로 72 (대평리, 경남도립거창대학)","location": {"lon":"127.912418659356","lat":"35.6732025593042"}}
{"index": {"_id":"21852"}}
{"id":"21852","name":"경남도립남해대학","address":"경상남도 남해군 남해읍 화전로78번길 30 (남변리, 경남도립남해대학)","location": {"lon":"127.898470090907","lat":"34.8369960246813"}}
{"index": {"_id":"21853"}}
{"id":"21853","name":"경북도립대학교","address":"경상북도 예천군 예천읍 도립대학길 114 (청복리, 경북도립대학교)","location": {"lon":"128.454637822423","lat":"36.6437290113003"}}
{"index": {"_id":"21854"}}
{"id":"21854","name":"충북도립대학교","address":"충청북도 옥천군 옥천읍 대학길 15 (문정리)","location": {"lon":"127.572138644831","lat":"36.299999182399"}}
{"index": {"_id":"21855"}}
{"id":"21855","name":"가톨릭상지대학교","address":"경상북도 안동시 상지길 45 (율세동, 가톨릭상지대학교)","location": {"lon":"128.737109793573","lat":"36.5694170968626"}}
{"index": {"_id":"21856"}}
{"id":"21856","name":"거제대학교","address":"경상남도 거제시 마전1길 91 (장승포동, 거제대학)","location": {"lon":"128.725387887091","lat":"34.8500206411124"}}
{"index": {"_id":"21857"}}
{"id":"21857","name":"호산대학교","address":"경상북도 경산시 하양읍 대경로105길 19 (부호리, 호산대학교)","location": {"lon":"128.798795128372","lat":"35.9019863205208"}}
{"index": {"_id":"21858"}}
{"id":"21858","name":"경민대학교","address":"경기도 의정부시 서부로 545 (가능동, 경민대학)","location": {"lon":"127.025131506194","lat":"37.746124313263"}}
{"index": {"_id":"21859"}}
{"id":"21859","name":"영남외국어대학","address":"경상북도 경산시 남천면 남천로 780-9 (협석리, 영남외국어대학)","location": {"lon":"128.732872947672","lat":"35.7851049019368"}}
{"index": {"_id":"21860"}}
{"id":"21860","name":"경인여자대학교","address":"인천광역시 계양구 계양산로 63 (계산동, 경인여자대학)","location": {"lon":"126.723505869181","lat":"37.5484350761487"}}
{"index": {"_id":"21861"}}
{"id":"21861","name":"계명문화대학교","address":"대구광역시 달서구 달서대로 675 (신당동, 계명문화대학교)","location": {"lon":"128.486341828526","lat":"35.8594620298616"}}
{"index": {"_id":"21862"}}
{"id":"21862","name":"계원예술대학교","address":"경기도 의왕시 계원대학로 66 (내손동, 계원예술대학교)","location": {"lon":"126.981821523784","lat":"37.3794706508554"}}
{"index": {"_id":"21863"}}
{"id":"21863","name":"광양보건대학교","address":"전라남도 광양시 광양읍 대학로 85 (덕례리, 광양보건대학)","location": {"lon":"127.568813385545","lat":"34.9532412900026"}}
{"index": {"_id":"21864"}}
{"id":"21864","name":"광주보건대학교","address":"광주광역시 광산구 북문대로419번길 73 (신창동, 광주보건대학)","location": {"lon":"126.846188623007","lat":"35.1916954595143"}}
{"index": {"_id":"21865"}}
{"id":"21865","name":"구미대학교","address":"경상북도 구미시 야은로 37 (부곡동, 구미대학교)","location": {"lon":"128.289088279966","lat":"36.1521662282152"}}
{"index": {"_id":"21866"}}
{"id":"21866","name":"군장대학교","address":"전라북도 군산시 성산면 군장대길 13 (도암리, 군장대학)","location": {"lon":"126.784980294553","lat":"36.0019765486563"}}
{"index": {"_id":"21867"}}
{"id":"21867","name":"강동대학교","address":"충청북도 음성군 감곡면 대학길 278 (단평리, 강동대학교)","location": {"lon":"127.647374692043","lat":"37.1435638628244"}}
{"index": {"_id":"21868"}}
{"id":"21868","name":"고구려대학교","address":"전라남도 나주시 다시면 백호로 125 (복암리, 고구려대학)","location": {"lon":"126.649142984141","lat":"35.0082467713121"}}
{"index": {"_id":"21869"}}
{"id":"21869","name":"전주기전대학","address":"전라북도 전주시 완산구 전주천서로 267 (중화산동1가, 전주기전대학)","location": {"lon":"127.135956892499","lat":"35.8178236166646"}}
{"index": {"_id":"21870"}}
{"id":"21870","name":"경북보건대학교","address":"경상북도 김천시 대학로 168 (삼락동, 경북보건대학교)","location": {"lon":"128.083765347332","lat":"36.1382094633366"}}
{"index": {"_id":"21871"}}
{"id":"21871","name":"김포대학교","address":"경기도 김포시 월곶면 김포대학로 97 (포내리, 김포대학교)","location": {"lon":"126.547291936211","lat":"37.729980260134"}}
{"index": {"_id":"21872"}}
{"id":"21872","name":"농협대학교","address":"경기도 고양시 덕양구 서삼릉길 281 (원당동, 농협대학)","location": {"lon":"126.873228715577","lat":"37.6595130984806"}}
{"index": {"_id":"21873"}}
{"id":"21873","name":"대경대학교","address":"경상북도 경산시 자인면 단북1길 65 (단북리, 대경대학)","location": {"lon":"128.821046976231","lat":"35.8344517618075"}}
{"index": {"_id":"21874"}}
{"id":"21874","name":"대구공업대학교","address":"대구광역시 달서구 송현로 205 (본동, 대구공업대학)","location": {"lon":"128.544328286436","lat":"35.8340818364179"}}
{"index": {"_id":"21875"}}
{"id":"21875","name":"대구보건대학교","address":"대구광역시 북구 영송로 15 (태전동, 대구보건대학)","location": {"lon":"128.544031065704","lat":"35.9267978807961"}}
{"index": {"_id":"21876"}}
{"id":"21876","name":"대구과학대학교","address":"대구광역시 북구 영송로 47 (태전동, 대구과학대학)","location": {"lon":"128.542798518056","lat":"35.9292290605209"}}
{"index": {"_id":"21877"}}
{"id":"21877","name":"대동대학교","address":"부산광역시 금정구 동부곡로27번길 88 (부곡동, 대동대학교)","location": {"lon":"129.095864701903","lat":"35.2291325119494"}}
{"index": {"_id":"21878"}}
{"id":"21878","name":"대림대학교","address":"경기도 안양시 동안구 임곡로 29 (비산동, 대림대학교)","location": {"lon":"126.930684164957","lat":"37.4032913499382"}}
{"index": {"_id":"21879"}}
{"id":"21879","name":"대원대학교","address":"충청북도 제천시 대학로 316 (신월동, 대원대학)","location": {"lon":"128.190528942068","lat":"37.1757962965305"}}
{"index": {"_id":"21880"}}
{"id":"21880","name":"동서울대학교","address":"경기도 성남시 수정구 복정로 76 (복정동, 동서울대학)","location": {"lon":"127.128844391431","lat":"37.4582854421752"}}
{"index": {"_id":"21881"}}
{"id":"21881","name":"대전보건대학교","address":"대전광역시 동구 충정로 21 (가양동, 대전보건대학)","location": {"lon":"127.455904248815","lat":"36.3505061602975"}}
{"index": {"_id":"21882"}}
{"id":"21882","name":"우송정보대학","address":"대전광역시 동구 백룡로 59(자양동 101-17) 우송정보대학","location": {"lon":"127.453585873556","lat":"36.3370292828942"}}
{"index": {"_id":"21883"}}
{"id":"21883","name":"대전과학기술대학교","address":"대전광역시 서구 혜천로 100 (복수동, 대전과학기술대학교)","location": {"lon":"127.375766717311","lat":"36.3017868630869"}}
{"index": {"_id":"21884"}}
{"id":"21884","name":"아주자동차대학","address":"충청남도 보령시 주포면 대학길 106 (관산리, 아주자동차대학)","location": {"lon":"126.579570776264","lat":"36.4035077720673"}}
{"index": {"_id":"21885"}}
{"id":"21885","name":"인천재능대학교","address":"인천광역시 동구 재능로 178 (송림동, 재능대학)","location": {"lon":"126.650473364336","lat":"37.4755331257648"}}
{"index": {"_id":"21886"}}
{"id":"21886","name":"경북과학대학교","address":"경상북도 칠곡군 기산면 지산로 634 (봉산리, 경북과학대학교)","location": {"lon":"128.345668966693","lat":"35.9831875152036"}}
{"index": {"_id":"21887"}}
{"id":"21887","name":"동남보건대학교","address":"경기도 수원시 장안구 천천로74번길 50 (정자동, 동남보건전문대학)","location": {"lon":"126.987000072709","lat":"37.2969384402553"}}
{"index": {"_id":"21888"}}
{"id":"21888","name":"동강대학교","address":"광주광역시 북구 동문대로 50 (풍향동, 동강대학)","location": {"lon":"126.92234609245","lat":"35.1694378564351"}}
{"index": {"_id":"21889"}}
{"id":"21889","name":"동아방송예술대학교","address":"경기도 안성시 삼죽면 동아예대길 47 (진촌리, 동아방송예술대학교)","location": {"lon":"127.353294629592","lat":"37.06236122856"}}
{"index": {"_id":"21890"}}
{"id":"21890","name":"동아보건대학교","address":"전라남도 영암군 학산면 영산로 76-57 (독천리, 동아보건대학교)","location": {"lon":"126.567432062503","lat":"34.7303557329681"}}
{"index": {"_id":"21891"}}
{"id":"21891","name":"동양미래대학교","address":"서울특별시 구로구 경인로 445 (고척동, 동양미래대학)","location": {"lon":"126.868169656727","lat":"37.4999957879198"}}
{"index": {"_id":"21892"}}
{"id":"21892","name":"동원대학교","address":"경기도 광주시 곤지암읍 경충대로 26 (신촌리, 동원대학)","location": {"lon":"127.401440535124","lat":"37.3280799949247"}}
{"index": {"_id":"21893"}}
{"id":"21893","name":"동의과학대학교","address":"부산광역시 부산진구 양지로 54 (양정동, 동의과학대학)","location": {"lon":"129.072226586557","lat":"35.1658498304458"}}
{"index": {"_id":"21894"}}
{"id":"21894","name":"동주대학교","address":"부산광역시 사하구 사리로55번길 16 (괴정동, 동주대학)","location": {"lon":"128.997230899793","lat":"35.1067235698512"}}
{"index": {"_id":"21895"}}
{"id":"21895","name":"두원공과대학교","address":"경기도 안성시 죽산면 관음당길 51 (장원리, 두원공과대학교)","location": {"lon":"127.424095980688","lat":"37.0649188449691"}}
{"index": {"_id":"21896"}}
{"id":"21896","name":"마산대학교","address":"경상남도 창원시 마산회원구 내서읍 함마대로 2640 (용담리, 마산대학)","location": {"lon":"128.503693849165","lat":"35.25987312943"}}
{"index": {"_id":"21897"}}
{"id":"21897","name":"명지전문대학","address":"서울특별시 서대문구 가좌로 134 (홍은동, 명지전문대학)","location": {"lon":"126.925647822893","lat":"37.5852831941405"}}
{"index": {"_id":"21898"}}
{"id":"21898","name":"목포과학대학교","address":"전라남도 목포시 영산로 413-1 (상동, 목포과학대학)","location": {"lon":"126.409814429126","lat":"34.8078795828145"}}
{"index": {"_id":"21899"}}
{"id":"21899","name":"문경대학교","address":"경상북도 문경시 호계면 대학길 161 (별암리)","location": {"lon":"128.174177800689","lat":"36.6575623417924"}}
{"index": {"_id":"21900"}}
{"id":"21900","name":"배화여자대학교","address":"서울특별시 종로구 필운대로1길 34 (필운동, 배화여자대학)","location": {"lon":"126.967291871532","lat":"37.5795440101952"}}
{"index": {"_id":"21901"}}
{"id":"21901","name":"백제예술대학교","address":"전라북도 완주군 봉동읍 백제대학로 171 (제내리, 백제예술대학)","location": {"lon":"127.129994492501","lat":"35.9962557666166"}}
{"index": {"_id":"21902"}}
{"id":"21902","name":"부산경상대학교","address":"부산광역시 연제구 고분로 170 (연산동, 부산경상대학)","location": {"lon":"129.100958918645","lat":"35.1854293314716"}}
{"index": {"_id":"21903"}}
{"id":"21903","name":"부산여자대학교","address":"부산광역시 부산진구 진남로 506 (양정동, 부산여자대학)","location": {"lon":"129.072055187665","lat":"35.1692365236515"}}
{"index": {"_id":"21904"}}
{"id":"21904","name":"부산과학기술대학교","address":"부산광역시 북구 시랑로132번길 88 (구포동, 부산과학기술대학교)","location": {"lon":"129.005303108413","lat":"35.1941945073743"}}
{"index": {"_id":"21905"}}
{"id":"21905","name":"부천대학교","address":"경기도 부천시 원미구 신흥로56번길 25 (심곡동, 부천대학)","location": {"lon":"126.779299815943","lat":"37.4888727234976"}}
{"index": {"_id":"21906"}}
{"id":"21906","name":"삼육보건대학교","address":"서울특별시 동대문구 망우로 82 (휘경동, 삼육보건대학) 삼육보건대학교","location": {"lon":"127.06355328121","lat":"37.5862119387672"}}
{"index": {"_id":"21907"}}
{"id":"21907","name":"서울예술대학교","address":"경기도 안산시 단원구 예술대학로 171 (고잔동, 서울예술대학)","location": {"lon":"126.836302333247","lat":"37.3334134929912"}}
{"index": {"_id":"21908"}}
{"id":"21908","name":"서일대학교","address":"서울특별시 중랑구 용마산로90길 28 (면목동)","location": {"lon":"127.097203310115","lat":"37.5860827979004"}}
{"index": {"_id":"21909"}}
{"id":"21909","name":"수원여자대학교","address":"경기도 수원시 권선구 온정로 72 (오목천동, 수원여자대학)","location": {"lon":"126.963307279503","lat":"37.2527054444737"}}
{"index": {"_id":"21910"}}
{"id":"21910","name":"수원과학대학교","address":"경기도 화성시 정남면 세자로 288 (보통리, 수원과학대학)","location": {"lon":"126.983926534359","lat":"37.1920328913299"}}
{"index": {"_id":"21911"}}
{"id":"21911","name":"순천제일대학교","address":"전라남도 순천시 제일대학길 17 (덕월동, 순천제일대학)","location": {"lon":"127.485197496383","lat":"34.9337969603803"}}
{"index": {"_id":"21912"}}
{"id":"21912","name":"숭의여자대학교","address":"서울특별시 중구 소파로2길 10 (예장동, 숭의여자대학)","location": {"lon":"126.987481605528","lat":"37.5578530747432"}}
{"index": {"_id":"21913"}}
{"id":"21913","name":"신구대학교","address":"경기도 성남시 중원구 광명로 377 (금광동, 신구대학)","location": {"lon":"127.167696591792","lat":"37.4488513932536"}}
{"index": {"_id":"21914"}}
{"id":"21914","name":"신성대학교","address":"충청남도 당진시 정미면 대학로 1 (덕마리, 신성대학교)","location": {"lon":"126.593768678199","lat":"36.8537094815468"}}
{"index": {"_id":"21915"}}
{"id":"21915","name":"신안산대학교","address":"경기도 안산시 단원구 신안산대학로 135 (초지동, 신안산대학교)","location": {"lon":"126.805416476366","lat":"37.3090167886307"}}
{"index": {"_id":"21916"}}
{"id":"21916","name":"안산대학교","address":"경기도 안산시 상록구 안산대학로 155 (일동, 안산대학교)","location": {"lon":"126.877119505751","lat":"37.3081718314322"}}
{"index": {"_id":"21917"}}
{"id":"21917","name":"동원과학기술대학교","address":"경상남도 양산시 명곡로 321 (명곡동, 동원과학기술대학교)","location": {"lon":"129.066354228284","lat":"35.3440175336646"}}
{"index": {"_id":"21918"}}
{"id":"21918","name":"여주대학교","address":"경기도 여주시 세종로 338 (교동, 여주대학교)","location": {"lon":"127.636353103878","lat":"37.2710928927952"}}
{"index": {"_id":"21919"}}
{"id":"21919","name":"연암대학교","address":"충청남도 천안시 서북구 성환읍 연암로 313 (수향리, 천안연암대학)","location": {"lon":"127.155740286827","lat":"36.9469108865814"}}
{"index": {"_id":"21920"}}
{"id":"21920","name":"영남이공대학교","address":"대구광역시 남구 현충로 170 (대명동, 영남이공대학)","location": {"lon":"128.584172624123","lat":"35.8476757387958"}}
{"index": {"_id":"21921"}}
{"id":"21921","name":"강릉영동대학교","address":"강원도 강릉시 공제로 357 (홍제동, 강릉영동대학)","location": {"lon":"128.855013043061","lat":"37.7474243086302"}}
{"index": {"_id":"21922"}}
{"id":"21922","name":"세경대학교","address":"강원도 영월군 영월읍 하송로 197 (하송리, 세경대학)","location": {"lon":"128.454302846851","lat":"37.1728407202899"}}
{"index": {"_id":"21923"}}
{"id":"21923","name":"영진전문대학교","address":"대구광역시 북구 복현로 35 (복현동, 영진전문대학)","location": {"lon":"128.620618952611","lat":"35.8956447648046"}}
{"index": {"_id":"21924"}}
{"id":"21924","name":"용인예술과학대학교","address":"경기도 용인시 처인구 동부로 61 (마평동, 용인송담대학교)","location": {"lon":"127.218185205368","lat":"37.2292153299387"}}
{"index": {"_id":"21925"}}
{"id":"21925","name":"울산과학대학교","address":"울산광역시 동구 봉수로 101 (화정동, 울산과학대학동부캠퍼스)","location": {"lon":"129.416053037787","lat":"35.4947681325569"}}
{"index": {"_id":"21926"}}
{"id":"21926","name":"한국영상대학교","address":"세종특별자치시 장군면 대학길 300 (금암리, 한국영상대학)","location": {"lon":"127.209743812094","lat":"36.4624110935815"}}
{"index": {"_id":"21927"}}
{"id":"21927","name":"원광보건대학교","address":"전라북도 익산시 익산대로 514 (신용동, 원광보건대학)","location": {"lon":"126.956195653838","lat":"35.9727464624942"}}
{"index": {"_id":"21928"}}
{"id":"21928","name":"유한대학교","address":"경기도 부천시 소사구 경인로 590 (괴안동, 유한대학)","location": {"lon":"126.822366316948","lat":"37.4881299135532"}}
{"index": {"_id":"21929"}}
{"id":"21929","name":"인덕대학교","address":"서울특별시 노원구 초안산로 12 (월계동, 인덕대학)","location": {"lon":"127.054499915273","lat":"37.6303438661503"}}
{"index": {"_id":"21930"}}
{"id":"21930","name":"장안대학교","address":"경기도 화성시 봉담읍 삼천병마로 1182 (상리, 장안대학)","location": {"lon":"126.94448214476","lat":"37.2132873190596"}}
{"index": {"_id":"21931"}}
{"id":"21931","name":"전남과학대학교","address":"전라남도 곡성군 옥과면 대학로 113 (옥과리)","location": {"lon":"127.132861213881","lat":"35.2773078171192"}}
{"index": {"_id":"21932"}}
{"id":"21932","name":"전주비전대학교","address":"전라북도 전주시 완산구 천잠로 235 (효자동2가, 전주비전대학)","location": {"lon":"127.09096633819","lat":"35.810876890747"}}
{"index": {"_id":"21933"}}
{"id":"21933","name":"전북과학대학교","address":"전라북도 정읍시 정읍사로 509 (시기동, 전북과학대학)","location": {"lon":"126.861357714493","lat":"35.5480413147124"}}
{"index": {"_id":"21934"}}
{"id":"21934","name":"제주관광대학교","address":"제주특별자치도 제주시 애월읍 평화로 2715 (광령리, 제주관광대학)","location": {"lon":"126.43430282708","lat":"33.4474802259546"}}
{"index": {"_id":"21935"}}
{"id":"21935","name":"조선이공대학교","address":"광주광역시 동구 필문대로 309-1 (서석동, 조선이공대학)","location": {"lon":"126.93115341723","lat":"35.1407255770897"}}
{"index": {"_id":"21936"}}
{"id":"21936","name":"충북보건과학대학교","address":"충청북도 청주시 청원구 내수읍 덕암길 10 (덕암리, 충북보건과학대학교)","location": {"lon":"127.553357528953","lat":"36.7035003719896"}}
{"index": {"_id":"21937"}}
{"id":"21937","name":"진주보건대학교","address":"경상남도 진주시 의병로 51 (상봉동, 진주보건대학)","location": {"lon":"128.066658147257","lat":"35.1980582876131"}}
{"index": {"_id":"21938"}}
{"id":"21938","name":"창원문성대학교","address":"경상남도 창원시 의창구 충혼로 91 (두대동)","location": {"lon":"","lat":""}}
{"index": {"_id":"21939"}}
{"id":"21939","name":"백석문화대학교","address":"충청남도 천안시 동남구 백석대학로 1 (안서동)","location": {"lon":"127.182520646399","lat":"36.8388372068096"}}
{"index": {"_id":"21940"}}
{"id":"21940","name":"청강문화산업대학교","address":"경기도 이천시 마장면 청강가창로 389-94 (해월리, 청강문화산업대학)","location": {"lon":"127.356496217098","lat":"37.2064534859647"}}
{"index": {"_id":"21941"}}
{"id":"21941","name":"춘해보건대학교","address":"울산광역시 울주군 웅촌면 대학길 9 (곡천리, 춘해보건대학)","location": {"lon":"129.19593294388","lat":"35.4583328580015"}}
{"index": {"_id":"21942"}}
{"id":"21942","name":"대덕대학교","address":"대전광역시 유성구 가정북로 68 (장동, 대덕대학)","location": {"lon":"127.367453313639","lat":"36.3908487081906"}}
{"index": {"_id":"21943"}}
{"id":"21943","name":"충청대학교","address":"충청북도 청주시 흥덕구 강내면 월곡길 38 (월곡리, 충청대학)","location": {"lon":"127.369818661228","lat":"36.6187357263436"}}
{"index": {"_id":"21944"}}
{"id":"21944","name":"강원관광대학교","address":"강원도 태백시 대학길 97 (황지동, 강원관광대학)","location": {"lon":"128.97323267681","lat":"37.162196686317"}}
{"index": {"_id":"21945"}}
{"id":"21945","name":"국제대학교","address":"경기도 평택시 장안웃길 56 (장안동, 국제대학교)","location": {"lon":"127.080291104308","lat":"37.0655111093565"}}
{"index": {"_id":"21946"}}
{"id":"21946","name":"선린대학교","address":"경상북도 포항시 북구 흥해읍 초곡길36번길 30 (초곡리, 선린대학)","location": {"lon":"129.333155494213","lat":"36.0907836583212"}}
{"index": {"_id":"21947"}}
{"id":"21947","name":"한림성심대학교","address":"강원도 춘천시 동면 장학길 48 (장학리, 한림성심대학교)","location": {"lon":"127.757053263585","lat":"37.8980832304145"}}
{"index": {"_id":"21948"}}
{"id":"21948","name":"한양여자대학교","address":"서울특별시 성동구 살곶이길 200 (사근동, 한양여자대학)","location": {"lon":"127.049321897316","lat":"37.5579175887117"}}
{"index": {"_id":"21949"}}
{"id":"21949","name":"한영대학교","address":"전라남도 여수시 장군산길 18-43 (여서동, 한영대학)","location": {"lon":"127.714887532264","lat":"34.7537136734842"}}
{"index": {"_id":"21950"}}
{"id":"21950","name":"혜전대학교","address":"충청남도 홍성군 홍성읍 대학1길 19","location": {"lon":"126.659195767096","lat":"36.5797705008343"}}
{"index": {"_id":"21951"}}
{"id":"21951","name":"경기과학기술대학교","address":"경기도 시흥시 경기과기대로 269 (정왕동, 경기과학기술대학교)","location": {"lon":"126.736415177541","lat":"37.3387984225552"}}
{"index": {"_id":"21952"}}
{"id":"21952","name":"부산예술대학교","address":"부산광역시 남구 못골번영로71번길 74 (대연동, 부산예술대학)","location": {"lon":"129.083912636752","lat":"35.1418395189121"}}
{"index": {"_id":"21953"}}
{"id":"21953","name":"전남도립대학교","address":"전라남도 담양군 담양읍 죽녹원로 152 (향교리, 전남도립대학)","location": {"lon":"126.992594258267","lat":"35.3265254838797"}}
{"index": {"_id":"21954"}}
{"id":"21954","name":"송호대학교","address":"강원도 횡성군 횡성읍 남산로 210 (남산리, 송호대학교)","location": {"lon":"128.002257332074","lat":"37.4735562385552"}}
{"index": {"_id":"21955"}}
{"id":"21955","name":"한국관광대학교","address":"경기도 이천시 신둔면 이장로311번길 197-73 (고척리, 한국관광대학)","location": {"lon":"127.377924128039","lat":"37.283521473248"}}
{"index": {"_id":"21956"}}
{"id":"21956","name":"서정대학교","address":"경기도 양주시 은현면 서정로 27","location": {"lon":"127.037803548832","lat":"37.8564658189262"}}
{"index": {"_id":"21957"}}
{"id":"21957","name":"송곡대학교","address":"강원도 춘천시 남산면 송곡대학길 34 (창촌리, 송곡대학교)","location": {"lon":"127.649395645623","lat":"37.7920524835962"}}
{"index": {"_id":"21958"}}
{"id":"21958","name":"웅지세무대학교","address":"경기도 파주시 탄현면 웅지로144번길 73 (금승리, 웅지세무대학)","location": {"lon":"126.735704511037","lat":"37.8187547820815"}}
{"index": {"_id":"21959"}}
{"id":"21959","name":"김해대학교","address":"경상남도 김해시 삼안로112번길 198 (삼방동, 김해대학교)","location": {"lon":"128.913046985427","lat":"35.2541400566853"}}
{"index": {"_id":"21960"}}
{"id":"21960","name":"한국승강기대학교","address":"경상남도 거창군 거창읍 운정1길 120 (송정리, 한국승강기대학)","location": {"lon":"127.895963631512","lat":"35.6757097541289"}}
{"index": {"_id":"21961"}}
{"id":"21961","name":"영진사이버대학교","address":"대구광역시 북구 복현로 35 (복현동, 영진전문대학)","location": {"lon":"128.620618952611","lat":"35.8956447648046"}}
{"index": {"_id":"21962"}}
{"id":"21962","name":"한국복지사이버대학","address":"경상북도 경산시 남천면 남천로 746-10 (협석리)","location": {"lon":"128.729308048602","lat":"35.784803171029"}}
{"index": {"_id":"21963"}}
{"id":"21963","name":"한국골프대학교","address":"강원도 횡성군 우천면 하대5길 109 한국골프대학교","location": {"lon":"128.076675629857","lat":"37.4671536900951"}}
{"index": {"_id":"21964"}}
{"id":"21964","name":"ICT폴리텍대학","address":"경기도 광주시 순암로 16-26 (역동) ICT폴리텍대학","location": {"lon":"127.248271161177","lat":"37.3973608087447"}}
{"index": {"_id":"21965"}}
{"id":"21965","name":"한국폴리텍 I 대학 서울정수캠퍼스","address":"서울특별시 용산구 보광로 73 (보광동, 한국폴리텍1대학서울정수캠퍼스)","location": {"lon":"126.996816950671","lat":"37.5299749717494"}}
{"index": {"_id":"21966"}}
{"id":"21966","name":"한국폴리텍 I 대학 서울강서캠퍼스","address":"서울특별시 강서구 우장산로10길 112 (화곡동, 한국폴리텍Ⅰ서울강서대학)","location": {"lon":"126.842445128444","lat":"37.5492424830708"}}
{"index": {"_id":"21967"}}
{"id":"21967","name":"한국폴리텍 I 대학 성남캠퍼스","address":"경기도 성남시 수정구 수정로 398 (산성동, 한국폴리텍I대학성남캠퍼스)","location": {"lon":"127.153991104911","lat":"37.4588779494343"}}
{"index": {"_id":"21968"}}
{"id":"21968","name":"한국폴리텍 II 대학 인천캠퍼스","address":"인천광역시 부평구 무네미로448번길 56 (구산동, 한국폴리텍Ⅱ대학)","location": {"lon":"126.754207314615","lat":"37.4791385371065"}}
{"index": {"_id":"21969"}}
{"id":"21969","name":"한국폴리텍 II 대학 남인천캠퍼스","address":"인천광역시 남구 염전로333번길 23 (주안동, 한국폴리텍Ⅱ대학(남인천캠퍼스))","location": {"lon":"126.677333638326","lat":"37.4726480111082"}}
{"index": {"_id":"21970"}}
{"id":"21970","name":"한국폴리텍 III 대학 춘천캠퍼스","address":"강원도 춘천시 동산면 영서로 1290-31 (원창리, 한국폴리텍Ⅲ대학)","location": {"lon":"127.777438688404","lat":"37.7993419879415"}}
{"index": {"_id":"21971"}}
{"id":"21971","name":"한국폴리텍 III 대학 강릉캠퍼스","address":"강원도 강릉시 남산초교길 121 (노암동, 한국폴리텍3대학)","location": {"lon":"128.890418508652","lat":"37.7368282346589"}}
{"index": {"_id":"21972"}}
{"id":"21972","name":"한국폴리텍 IV 대학 대전캠퍼스","address":"대전광역시 동구 우암로 352-21 (가양동, 한국폴리텍IV대학)","location": {"lon":"127.453757371833","lat":"36.3510398955929"}}
{"index": {"_id":"21973"}}
{"id":"21973","name":"한국폴리텍 IV 대학 청주캠퍼스","address":"충청북도 청주시 흥덕구 산단로 54 (송정동, 한국폴리텍Ⅳ대학청주캠퍼스)","location": {"lon":"127.448378167421","lat":"36.6395868034277"}}
{"index": {"_id":"21974"}}
{"id":"21974","name":"한국폴리텍 IV 대학 아산캠퍼스","address":"충청남도 아산시 신창면 행목로 45 (행목리, 한국폴리텍Ⅳ대학아산캠퍼스)","location": {"lon":"126.948845432823","lat":"36.7720509090561"}}
{"index": {"_id":"21975"}}
{"id":"21975","name":"한국폴리텍 IV 대학 홍성캠퍼스","address":"충청남도 홍성군 홍성읍 충서로 1200 (남장리, 한국폴리텍IV대학홍성)","location": {"lon":"126.656165241889","lat":"36.5826195874657"}}
{"index": {"_id":"21976"}}
{"id":"21976","name":"한국폴리텍 V 대학 광주캠퍼스","address":"광주광역시 북구 하서로 85 (운암동, 한국폴리텍V대학)","location": {"lon":"126.878671829328","lat":"35.1829561363337"}}
{"index": {"_id":"21977"}}
{"id":"21977","name":"한국폴리텍 V 대학 전북캠퍼스","address":"전라북도 김제시 백학제길 154 (백학동, 한국폴리텍V대학)","location": {"lon":"126.939729826939","lat":"35.8096561524104"}}
{"index": {"_id":"21978"}}
{"id":"21978","name":"한국폴리텍 V 대학 전남캠퍼스","address":"전라남도 무안군 청계면 영산로 1854-16 한국폴리텍V대학 전남캠퍼스","location": {"lon":"126.428923172878","lat":"34.9235337192904"}}
{"index": {"_id":"21979"}}
{"id":"21979","name":"한국폴리텍 V 대학 익산캠퍼스","address":"전라북도 익산시 선화로 579 (어양동, 한국폴리텍V대학)","location": {"lon":"126.990586609717","lat":"35.9520018788086"}}
{"index": {"_id":"21980"}}
{"id":"21980","name":"한국폴리텍 VI 대학 대구캠퍼스","address":"대구광역시 서구 국채보상로43길 15 (평리동, 한국폴리텍6대학)","location": {"lon":"128.553015141821","lat":"35.8741438115873"}}
{"index": {"_id":"21981"}}
{"id":"21981","name":"한국폴리텍 VI 대학 구미캠퍼스","address":"경상북도 구미시 수출대로3길 84 (공단동, 한국폴리텍ⅵ대학구미캠퍼스)","location": {"lon":"128.373729596913","lat":"36.1192957180323"}}
{"index": {"_id":"21982"}}
{"id":"21982","name":"한국폴리텍 VII 대학 창원캠퍼스","address":"경상남도 창원시 성산구 외동반림로 51-88 (중앙동, 한국폴리텍VII대학)","location": {"lon":"128.669302406431","lat":"35.2257115695069"}}
{"index": {"_id":"21983"}}
{"id":"21983","name":"한국폴리텍 VII 대학 부산캠퍼스","address":"부산광역시 북구 만덕대로155번길 99 (덕천동, 한국폴리텍VII대학부산캠퍼스)","location": {"lon":"129.018980698165","lat":"35.2184773672252"}}
{"index": {"_id":"21984"}}
{"id":"21984","name":"한국폴리텍 VII 대학 울산캠퍼스","address":"울산광역시 중구 산전길 155 (동동, 한국폴리텍7대학울산캠퍼스)","location": {"lon":"129.348036827722","lat":"35.5785306875814"}}
{"index": {"_id":"21985"}}
{"id":"21985","name":"한국폴리텍 특성화대학 바이오캠퍼스","address":"충청남도 논산시 강경읍 동안로112번길 48","location": {"lon":"127.021558780083","lat":"36.1459959594605"}}
{"index": {"_id":"21986"}}
{"id":"21986","name":"한국폴리텍 VI 대학 영남융합기술캠퍼스","address":"대구광역시 동구 팔공로 222(봉무동)","location": {"lon":"128.642014904481","lat":"35.9202430396438"}}
{"index": {"_id":"21987"}}
{"id":"21987","name":"한국폴리텍 특성화대학 반도체융합캠퍼스","address":"경기도 안성시 공도읍 송원길 41-12 (만정리, 한국폴리텍여자대학)","location": {"lon":"127.176224540239","lat":"37.0085562720445"}}
{"index": {"_id":"21988"}}
{"id":"21988","name":"한국폴리텍 특성화대학 항공캠퍼스","address":"경상남도 사천시 대학길 46 (이금동, 한국폴리텍항공대학)","location": {"lon":"128.107986852618","lat":"34.947849518386"}}
{"index": {"_id":"21989"}}
{"id":"21989","name":"경동대학교","address":"강원도 속초시 도리원길 5 (노학동, 동우대학)","location": {"lon":"128.551158403428","lat":"38.19217298697"}}
{"index": {"_id":"21990"}}
{"id":"21990","name":"경동대학교","address":"강원도 원주시 문막읍 견훤로 815 (후용리, 경동대학교)","location": {"lon":"127.792303266371","lat":"37.2647324231827"}}
{"index": {"_id":"21991"}}
{"id":"21991","name":"강원도립대학교","address":"강원도 강릉시 주문진읍 연주로 270","location": {"lon":"128.830621724044","lat":"37.8766352632737"}}
{"index": {"_id":"21992"}}
{"id":"21992","name":"경남정보대학교","address":"부산광역시 사상구 주례로 45 (주례동, 경남정보대학교)","location": {"lon":"129.009070654332","lat":"35.1464508547704"}}
{"index": {"_id":"21993"}}
{"id":"21993","name":"경복대학교","address":"경기도 남양주시 진접읍 경복대로 425 (금곡리, 경복대학교)","location": {"lon":"","lat":""}}
{"index": {"_id":"21994"}}
{"id":"21994","name":"경북전문대학교","address":"경상북도 영주시 대학로 77 (휴천동, 경북전문대학교)","location": {"lon":"128.616142369978","lat":"36.8070011304818"}}
{"index": {"_id":"21995"}}
{"id":"21995","name":"서라벌대학교","address":"경상북도 경주시 태종로 478-20 (충효동, 서라벌대학)","location": {"lon":"129.182165124094","lat":"35.841705966737"}}
{"index": {"_id":"21996"}}
{"id":"21996","name":"서영대학교","address":"광주광역시 북구 서강로 1 (운암동, 서영대학교)","location": {"lon":"126.868094977421","lat":"35.1749928661466"}}
{"index": {"_id":"21997"}}
{"id":"21997","name":"성운대학교","address":"경상북도 영천시 신녕면 대학길 105 (화남리, 성덕대학교)","location": {"lon":"128.761408840609","lat":"36.0642075228533"}}
{"index": {"_id":"21998"}}
{"id":"21998","name":"수성대학교","address":"대구광역시 수성구 달구벌대로528길 15 (만촌동, 수성대학교)","location": {"lon":"128.649611283701","lat":"35.8552527241055"}}
{"index": {"_id":"21999"}}
{"id":"21999","name":"안동과학대학교","address":"경상북도 안동시 서후면 서선길 189 (교리, 안동과학대학교)","location": {"lon":"128.65281105207","lat":"36.5902051856178"}}
{"index": {"_id":"22000"}}
{"id":"22000","name":"연성대학교","address":"경기도 안양시 만안구 양화로37번길 34 (안양동, 연성대학교)","location": {"lon":"126.909204476497","lat":"37.3974718885326"}}
{"index": {"_id":"22001"}}
{"id":"22001","name":"연암공과대학교","address":"경남 진주시 진주대로 629번길 35(가좌동, 연암공과대학교)","location": {"lon":"128.098091838466","lat":"35.1653123714769"}}
{"index": {"_id":"22002"}}
{"id":"22002","name":"오산대학교","address":"경기도 오산시 청학로 45 (청학동, 오산대학)","location": {"lon":"127.063205353933","lat":"37.1535666327024"}}
{"index": {"_id":"22003"}}
{"id":"22003","name":"인하공업전문대학","address":"인천광역시 미추홀구 인하로 100 (용현동, 인하대,인하공전,정석항공고) 인하공업전문대학","location": {"lon":"126.651542258118","lat":"37.4514480321002"}}
{"index": {"_id":"22004"}}
{"id":"22004","name":"제주한라대학교","address":"제주특별자치도 제주시 한라대학로 38 (노형동, 제주한라대학)","location": {"lon":"126.474151903132","lat":"33.4767897566467"}}
{"index": {"_id":"22005"}}
{"id":"22005","name":"청암대학교","address":"전라남도 순천시 녹색로 1641 (덕월동, 순천청암대학)","location": {"lon":"127.489314204813","lat":"34.9285877673016"}}
{"index": {"_id":"22006"}}
{"id":"22006","name":"충남도립대학교","address":"충청남도 청양군 청양읍 학사길 55 (벽천리, 충남도립대학교)","location": {"lon":"126.801986454112","lat":"36.4364409203219"}}
{"index": {"_id":"22007"}}
{"id":"22007","name":"포항대학교","address":"경상북도 포항시 북구 흥해읍 신덕로 60 (죽천리, 포항대학교)","location": {"lon":"129.41069767987","lat":"36.0864217443158"}}
{"index": {"_id":"22008"}}
{"id":"22008","name":"한국복지대학교","address":"경기도 평택시 삼남로 283 (장안동, 한국복지대학교)","location": {"lon":"127.094959665295","lat":"37.0517307950603"}}
{"index": {"_id":"22009"}}
{"id":"22009","name":"인천대학교","address":"인천광역시 연수구 아카데미로 119 (송도동, 인천대학교)","location": {"lon":"126.632510099924","lat":"37.3780742238577"}}
{"index": {"_id":"22010"}}
{"id":"22010","name":"한국폴리텍 VI 대학 영주캠퍼스","address":"경상북도 영주시 가흥로 2 (문정동, 한국폴리텍VI대학)","location": {"lon":"128.602822953576","lat":"36.8007410896618"}}
{"index": {"_id":"22011"}}
{"id":"22011","name":"신한대학교","address":"경기도 동두천시 벌마들로40번길 30 (상패동, 신한대학교)","location": {"lon":"127.037887481412","lat":"37.9038706043379"}}
{"index": {"_id":"22012"}}
{"id":"22012","name":"단국대학교","address":"충청남도 천안시 동남구 단대로 119 (안서동, 단국대학교천안캠퍼스)","location": {"lon":"127.165213408735","lat":"36.8359524852566"}}
{"index": {"_id":"22013"}}
{"id":"22013","name":"경동대학교","address":"경기도 양주시 경동대학로 27 (고암동)","location": {"lon":"127.070529685828","lat":"37.8094617290224"}}
{"index": {"_id":"22014"}}
{"id":"22014","name":"가야대학교(김해)","address":"경상남도 김해시 삼계로 208 (삼계동)","location": {"lon":"128.872320984264","lat":"35.2698162801243"}}
{"index": {"_id":"22015"}}
{"id":"22015","name":"가야대학교(고령)","address":"경상북도 고령군 대가야읍 대가야로 1103 (지산리, 가야대학교)","location": {"lon":"128.250355799825","lat":"35.7188918335394"}}
{"index": {"_id":"22016"}}
{"id":"22016","name":"신한대학교","address":"경기도 의정부시 호암로 95 (호원동, 신한대학교)","location": {"lon":"127.046301082575","lat":"37.7101907738313"}}
{"index": {"_id":"22017"}}
{"id":"22017","name":"한국폴리텍 III 대학 원주캠퍼스","address":"강원도 원주시 북원로2425번길 73 (우산동, 한국폴리텍3대학)","location": {"lon":"127.933142122004","lat":"37.3626216627378"}}
{"index": {"_id":"22018"}}
{"id":"22018","name":"을지대학교","address":"경기도 의정부시 동일로 712 (금오동)","location": {"lon":"127.050695679688","lat":"37.7518290378344"}}
{"index": {"_id":"22019"}}
{"id":"22019","name":"한국폴리텍 I 대학 제주캠퍼스","address":"제주특별자치도 제주시 산천단동3길 2 (아라일동, 한국폴리택대학제주캠퍼스)","location": {"lon":"126.561310328708","lat":"33.4487566359715"}}
{"index": {"_id":"22020"}}
{"id":"22020","name":"홍익대학교","address":"세종특별자치시 조치원읍 세종로 2639 (신안리, 홍익대학교세종캠퍼스)","location": {"lon":"127.288098013088","lat":"36.6197753286909"}}
{"index": {"_id":"22021"}}
{"id":"22021","name":"상명대학교","address":"충청남도 천안시 동남구 상명대길 31 (안서동, 상명대학교천안캠퍼스)","location": {"lon":"127.180992915316","lat":"36.8313071956562"}}
{"index": {"_id":"22022"}}
{"id":"22022","name":"군산간호대학교","address":"전라북도 군산시 동개정길 7 (개정동, 군산간호대학교)","location": {"lon":"126.760107648909","lat":"35.9710187044249"}}
{"index": {"_id":"22023"}}
{"id":"22023","name":"기독간호대학교","address":"광주광역시 남구 백서로70번길 6 (양림동, 기독간호대학)","location": {"lon":"126.915868896514","lat":"35.1383078500746"}}
{"index": {"_id":"22024"}}
{"id":"22024","name":"서울여자간호대학교","address":"서울특별시 서대문구 간호대로 38 (홍제동, 서울여자간호대학교)","location": {"lon":"126.947593444101","lat":"37.5976776713197"}}
{"index": {"_id":"22025"}}
{"id":"22025","name":"조선간호대학교","address":"광주광역시 동구 필문대로 309-2 (서석동, 조선간호대학교)","location": {"lon":"126.928664255043","lat":"35.1379759733143"}}
{"index": {"_id":"22026"}}
{"id":"22026","name":"한국폴리텍 V 대학 순천캠퍼스","address":"전라남도 순천시 기적의도서관1길 41 (조례동, 한국폴리텍대학순천캠퍼스)","location": {"lon":"127.52682922592","lat":"34.9529729247055"}}
{"index": {"_id":"22027"}}
{"id":"22027","name":"한국농수산대학(일반)","address":"전라북도 전주시 덕진구 콩쥐팥쥐로 1515 (중동, 한국농수산대학)","location": {"lon":"127.068575244278","lat":"35.8303885378204"}}
{"index": {"_id":"22028"}}
{"id":"22028","name":"한국전통문화대학교","address":"충청남도 부여군 규암면 백제문로 367 (합정리, 한국전통문화대학교)","location": {"lon":"126.89688409526","lat":"36.3094801243805"}}
{"index": {"_id":"22029"}}
{"id":"22029","name":"한국폴리텍 특성화대학 로봇캠퍼스","address":"경상북도 영천시 로봇캠퍼스로 1 (화룡동)","location": {"lon":"128.922431182802","lat":"35.9726222899518"}}
{"index": {"_id":"22030"}}
{"id":"22030","name":"한국폴리텍 II 대학 화성캠퍼스","address":"경기도 화성시 팔탄면 제암고주로 108","location": {"lon":"126.889662915342","lat":"37.1315076915259"}}
{"index": {"_id":"22031"}}
{"id":"22031","name":"한국에너지공과대학교","address":"전라남도 나주시 혁신로 200(빛가람동)","location": {"lon":"126.802448388121","lat":"35.0148894072922"}}
{"index": {"_id":"22032"}}
{"id":"22032","name":"한국폴리텍 VII 대학 진주캠퍼스","address":"경상남도 진주시 모덕로 299(하대동) 한국폴리텍대학 진주캠퍼스","location": {"lon":"128.126499662219","lat":"35.1908011452315"}}
{"index": {"_id":"22033"}}
{"id":"22033","name":"한국폴리텍 VII 대학 동부산캠퍼스","address":"부산광역시 기장군 정관읍 산단4로 2-69","location": {"lon":"129.179318190749","lat":"35.3112937675989"}}