{"index": {"_id":"20554"}}
{"id":"20554","stationno":"0101","name":"판암역","routeno":"대전 도시철도 1호선","location": {"lon":"127.458264","lat":"36.316896"}}
{"index": {"_id":"20555"}}
{"id":"20555","stationno":"0102","name":"신흥역","routeno":"대전 도시철도 1호선","location": {"lon":"127.448792","lat":"36.319652"}}
{"index": {"_id":"20556"}}
{"id":"20556","stationno":"0103","name":"대동역","routeno":"대전 도시철도 1호선","location": {"lon":"127.442848","lat":"36.329532"}}
{"index": {"_id":"20557"}}
{"id":"20557","stationno":"0104","name":"대전역","routeno":"대전 도시철도 1호선","location": {"lon":"127.433118","lat":"36.331583"}}
{"index": {"_id":"20558"}}
{"id":"20558","stationno":"0105","name":"중앙로역","routeno":"대전 도시철도 1호선","location": {"lon":"127.425842","lat":"36.328664"}}
{"index": {"_id":"20559"}}
{"id":"20559","stationno":"0106","name":"중구청역","routeno":"대전 도시철도 1호선","location": {"lon":"127.419627","lat":"36.324831"}}
{"index": {"_id":"20560"}}
{"id":"20560","stationno":"0107","name":"서대전네거리역","routeno":"대전 도시철도 1호선","location": {"lon":"127.412518","lat":"36.322416"}}
{"index": {"_id":"20561"}}
{"id":"20561","stationno":"0108","name":"오룡역","routeno":"대전 도시철도 1호선","location": {"lon":"127.405046","lat":"36.328582"}}
{"index": {"_id":"20562"}}
{"id":"20562","stationno":"0109","name":"용문역","routeno":"대전 도시철도 1호선","location": {"lon":"127.393317","lat":"36.338252"}}
{"index": {"_id":"20563"}}
{"id":"20563","stationno":"0110","name":"탄방역","routeno":"대전 도시철도 1호선","location": {"lon":"127.384603","lat":"36.34544"}}
{"index": {"_id":"20564"}}
{"id":"20564","stationno":"0111","name":"시청역","routeno":"대전 도시철도 1호선","location": {"lon":"127.386739","lat":"36.351673"}}
{"index": {"_id":"20565"}}
{"id":"20565","stationno":"0112","name":"정부청사역","routeno":"대전 도시철도 1호선","location": {"lon":"127.381047","lat":"36.357661"}}
{"index": {"_id":"20566"}}
{"id":"20566","stationno":"0113","name":"갈마역","routeno":"대전 도시철도 1호선","location": {"lon":"127.372632","lat":"36.357522"}}
{"index": {"_id":"20567"}}
{"id":"20567","stationno":"0114","name":"월평역","routeno":"대전 도시철도 1호선","location": {"lon":"127.364382","lat":"36.358272"}}
{"index": {"_id":"20568"}}
{"id":"20568","stationno":"0115","name":"갑천역","routeno":"대전 도시철도 1호선","location": {"lon":"127.354467","lat":"36.354578"}}
{"index": {"_id":"20569"}}
{"id":"20569","stationno":"0116","name":"유성온천역","routeno":"대전 도시철도 1호선","location": {"lon":"127.341524","lat":"36.353689"}}
{"index": {"_id":"20570"}}
{"id":"20570","stationno":"0117","name":"구암역","routeno":"대전 도시철도 1호선","location": {"lon":"127.33083","lat":"36.356605"}}
{"index": {"_id":"20571"}}
{"id":"20571","stationno":"0118","name":"현충원역","routeno":"대전 도시철도 1호선","location": {"lon":"127.321525","lat":"36.359021"}}
{"index": {"_id":"20572"}}
{"id":"20572","stationno":"0119","name":"월드컵경기장역","routeno":"대전 도시철도 1호선","location": {"lon":"127.317859","lat":"36.366825"}}
{"index": {"_id":"20573"}}
{"id":"20573","stationno":"0120","name":"노은역","routeno":"대전 도시철도 1호선","location": {"lon":"127.317835","lat":"36.37415"}}
{"index": {"_id":"20574"}}
{"id":"20574","stationno":"0121","name":"지족역","routeno":"대전 도시철도 1호선","location": {"lon":"127.319501","lat":"36.384106"}}
{"index": {"_id":"20575"}}
{"id":"20575","stationno":"0122","name":"반석역","routeno":"대전 도시철도 1호선","location": {"lon":"127.314581","lat":"36.392128"}}
{"index": {"_id":"20576"}}
{"id":"20576","stationno":"0115","name":"설화명곡역","routeno":"대구 도시철도 1호선","location": {"lon":"128.489259151701","lat":"35.7986729223813"}}
{"index": {"_id":"20577"}}
{"id":"20577","stationno":"0116","name":"화원역","routeno":"대구 도시철도 1호선","location": {"lon":"128.500678990227","lat":"35.8044340709675"}}
{"index": {"_id":"20578"}}
{"id":"20578","stationno":"0117","name":"대곡역","routeno":"대구 도시철도 1호선","location": {"lon":"128.512485512452","lat":"35.8094387559809"}}
{"index": {"_id":"20579"}}
{"id":"20579","stationno":"0118","name":"진천역","routeno":"대구 도시철도 1호선","location": {"lon":"128.523115492873","lat":"35.8138906159416"}}
{"index": {"_id":"20580"}}
{"id":"20580","stationno":"0119","name":"월배역","routeno":"대구 도시철도 1호선","location": {"lon":"128.53032556924","lat":"35.8161414091445"}}
{"index": {"_id":"20581"}}
{"id":"20581","stationno":"0120","name":"상인역","routeno":"대구 도시철도 1호선","location": {"lon":"128.537897144007","lat":"35.8189519841654"}}
{"index": {"_id":"20582"}}
{"id":"20582","stationno":"0121","name":"월촌역","routeno":"대구 도시철도 1호선","location": {"lon":"128.545490846925","lat":"35.8237325283715"}}
{"index": {"_id":"20583"}}
{"id":"20583","stationno":"0122","name":"송현역","routeno":"대구 도시철도 1호선","location": {"lon":"128.551746354865","lat":"35.8310680580574"}}
{"index": {"_id":"20584"}}
{"id":"20584","stationno":"0123","name":"서부정류장역","routeno":"대구 도시철도 1호선","location": {"lon":"128.557028988871","lat":"35.8371280140155"}}
{"index": {"_id":"20585"}}
{"id":"20585","stationno":"0124","name":"대명역","routeno":"대구 도시철도 1호선","location": {"lon":"128.565377667483","lat":"35.8393139560409"}}
{"index": {"_id":"20586"}}
{"id":"20586","stationno":"0125","name":"안지랑역","routeno":"대구 도시철도 1호선","location": {"lon":"128.57317635059","lat":"35.8392666155309"}}
{"index": {"_id":"20587"}}
{"id":"20587","stationno":"0126","name":"현충로역","routeno":"대구 도시철도 1호선","location": {"lon":"128.581924140795","lat":"35.8411755565813"}}
{"index": {"_id":"20588"}}
{"id":"20588","stationno":"0127","name":"영대병원역","routeno":"대구 도시철도 1호선","location": {"lon":"128.587618311848","lat":"35.843950327515"}}
{"index": {"_id":"20589"}}
{"id":"20589","stationno":"0128","name":"교대역","routeno":"대구 도시철도 1호선","location": {"lon":"128.590595753027","lat":"35.8500946138926"}}
{"index": {"_id":"20590"}}
{"id":"20590","stationno":"0129","name":"명덕역","routeno":"대구 도시철도 1호선","location": {"lon":"128.591150709043","lat":"35.8579525546808"}}
{"index": {"_id":"20591"}}
{"id":"20591","stationno":"0130","name":"반월당역","routeno":"대구 도시철도 1호선","location": {"lon":"128.593340834492","lat":"35.8644213158621"}}
{"index": {"_id":"20592"}}
{"id":"20592","stationno":"0131","name":"중앙로역","routeno":"대구 도시철도 1호선","location": {"lon":"128.594012924936","lat":"35.8709646122443"}}
{"index": {"_id":"20593"}}
{"id":"20593","stationno":"0132","name":"대구역","routeno":"대구 도시철도 1호선","location": {"lon":"128.597215197964","lat":"35.8763437907874"}}
{"index": {"_id":"20594"}}
{"id":"20594","stationno":"0133","name":"칠성시장역","routeno":"대구 도시철도 1호선","location": {"lon":"128.605168503159","lat":"35.8761274529496"}}
{"index": {"_id":"20595"}}
{"id":"20595","stationno":"0134","name":"신천역","routeno":"대구 도시철도 1호선","location": {"lon":"128.617650223636","lat":"35.874633410353"}}
{"index": {"_id":"20596"}}
{"id":"20596","stationno":"0135","name":"동대구역","routeno":"대구 도시철도 1호선","location": {"lon":"128.62732526467","lat":"35.8774298682917"}}
{"index": {"_id":"20597"}}
{"id":"20597","stationno":"0136","name":"동구청역","routeno":"대구 도시철도 1호선","location": {"lon":"128.632083488086","lat":"35.8842379937945"}}
{"index": {"_id":"20598"}}
{"id":"20598","stationno":"0137","name":"아양교역","routeno":"대구 도시철도 1호선","location": {"lon":"128.639644975751","lat":"35.8871190029575"}}
{"index": {"_id":"20599"}}
{"id":"20599","stationno":"0138","name":"동촌역","routeno":"대구 도시철도 1호선","location": {"lon":"128.650457826797","lat":"35.8859617817579"}}
{"index": {"_id":"20600"}}
{"id":"20600","stationno":"0139","name":"해안역","routeno":"대구 도시철도 1호선","location": {"lon":"128.659918132912","lat":"35.88350285674"}}
{"index": {"_id":"20601"}}
{"id":"20601","stationno":"0140","name":"방촌역","routeno":"대구 도시철도 1호선","location": {"lon":"128.67012075056","lat":"35.8796374696144"}}
{"index": {"_id":"20602"}}
{"id":"20602","stationno":"0141","name":"용계역","routeno":"대구 도시철도 1호선","location": {"lon":"128.681644193766","lat":"35.8762453850392"}}
{"index": {"_id":"20603"}}
{"id":"20603","stationno":"0142","name":"율하역","routeno":"대구 도시철도 1호선","location": {"lon":"128.692779243132","lat":"35.8697780719486"}}
{"index": {"_id":"20604"}}
{"id":"20604","stationno":"0143","name":"신기역","routeno":"대구 도시철도 1호선","location": {"lon":"128.702475235316","lat":"35.8667008193255"}}
{"index": {"_id":"20605"}}
{"id":"20605","stationno":"0144","name":"반야월역","routeno":"대구 도시철도 1호선","location": {"lon":"128.713656558767","lat":"35.8659888735073"}}
{"index": {"_id":"20606"}}
{"id":"20606","stationno":"0145","name":"각산역","routeno":"대구 도시철도 1호선","location": {"lon":"128.724165388395","lat":"35.8680021651868"}}
{"index": {"_id":"20607"}}
{"id":"20607","stationno":"0146","name":"안심역","routeno":"대구 도시철도 1호선","location": {"lon":"128.733772871365","lat":"35.8712803753692"}}
{"index": {"_id":"20608"}}
{"id":"20608","stationno":"0216","name":"문양역","routeno":"대구 도시철도 2호선","location": {"lon":"128.437092441158","lat":"35.8640792502072"}}
{"index": {"_id":"20609"}}
{"id":"20609","stationno":"0217","name":"다사역","routeno":"대구 도시철도 2호선","location": {"lon":"128.458543493313","lat":"35.864728706423"}}
{"index": {"_id":"20610"}}
{"id":"20610","stationno":"0218","name":"대실역","routeno":"대구 도시철도 2호선","location": {"lon":"128.465657834285","lat":"35.8572766461263"}}
{"index": {"_id":"20611"}}
{"id":"20611","stationno":"0219","name":"강창역","routeno":"대구 도시철도 2호선","location": {"lon":"128.478343767188","lat":"35.8530784098405"}}
{"index": {"_id":"20612"}}
{"id":"20612","stationno":"0220","name":"계명대역","routeno":"대구 도시철도 2호선","location": {"lon":"128.491979054503","lat":"35.8515042125557"}}
{"index": {"_id":"20613"}}
{"id":"20613","stationno":"0221","name":"성서산업단지역","routeno":"대구 도시철도 2호선","location": {"lon":"128.507251734729","lat":"35.8517309819878"}}
{"index": {"_id":"20614"}}
{"id":"20614","stationno":"0222","name":"이곡역","routeno":"대구 도시철도 2호선","location": {"lon":"128.515768575199","lat":"35.8506200255144"}}
{"index": {"_id":"20615"}}
{"id":"20615","stationno":"0223","name":"용산역","routeno":"대구 도시철도 2호선","location": {"lon":"128.528391512291","lat":"35.8489652596373"}}
{"index": {"_id":"20616"}}
{"id":"20616","stationno":"0224","name":"죽전역","routeno":"대구 도시철도 2호선","location": {"lon":"128.538390834452","lat":"35.850543243757"}}
{"index": {"_id":"20617"}}
{"id":"20617","stationno":"0225","name":"감삼역","routeno":"대구 도시철도 2호선","location": {"lon":"128.547903756877","lat":"35.8542352631467"}}
{"index": {"_id":"20618"}}
{"id":"20618","stationno":"0226","name":"두류역","routeno":"대구 도시철도 2호선","location": {"lon":"128.556606998098","lat":"35.8575467229942"}}
{"index": {"_id":"20619"}}
{"id":"20619","stationno":"0227","name":"내당역","routeno":"대구 도시철도 2호선","location": {"lon":"128.572554555685","lat":"35.862198717425"}}
{"index": {"_id":"20620"}}
{"id":"20620","stationno":"0228","name":"반고개역","routeno":"대구 도시철도 2호선","location": {"lon":"128.564742731082","lat":"35.860177179062"}}
{"index": {"_id":"20621"}}
{"id":"20621","stationno":"0229","name":"청라언덕역","routeno":"대구 도시철도 2호선","location": {"lon":"128.582469146488","lat":"35.8649080168924"}}
{"index": {"_id":"20622"}}
{"id":"20622","stationno":"0230","name":"반월당역","routeno":"대구 도시철도 2호선","location": {"lon":"128.593340834492","lat":"35.8644213158621"}}
{"index": {"_id":"20623"}}
{"id":"20623","stationno":"0231","name":"경대병원역","routeno":"대구 도시철도 2호선","location": {"lon":"128.602801032774","lat":"35.8632004713941"}}
{"index": {"_id":"20624"}}
{"id":"20624","stationno":"0232","name":"대구은행역","routeno":"대구 도시철도 2호선","location": {"lon":"128.614226857945","lat":"35.8597395513227"}}
{"index": {"_id":"20625"}}
{"id":"20625","stationno":"0233","name":"범어역","routeno":"대구 도시철도 2호선","location": {"lon":"128.624455329435","lat":"35.8590147461011"}}
{"index": {"_id":"20626"}}
{"id":"20626","stationno":"0234","name":"수성구청역","routeno":"대구 도시철도 2호선","location": {"lon":"128.635950299762","lat":"35.8587419533164"}}
{"index": {"_id":"20627"}}
{"id":"20627","stationno":"0235","name":"만촌역","routeno":"대구 도시철도 2호선","location": {"lon":"128.645371159227","lat":"35.8588019750307"}}
{"index": {"_id":"20628"}}
{"id":"20628","stationno":"0236","name":"담티역","routeno":"대구 도시철도 2호선","location": {"lon":"128.653680085609","lat":"35.8548667832813"}}
{"index": {"_id":"20629"}}
{"id":"20629","stationno":"0237","name":"연호역","routeno":"대구 도시철도 2호선","location": {"lon":"128.671839821118","lat":"35.8464598738962"}}
{"index": {"_id":"20630"}}
{"id":"20630","stationno":"0238","name":"대공원역","routeno":"대구 도시철도 2호선","location": {"lon":"128.679991755636","lat":"35.8425985135033"}}
{"index": {"_id":"20631"}}
{"id":"20631","stationno":"0239","name":"고산역","routeno":"대구 도시철도 2호선","location": {"lon":"128.69385117212","lat":"35.8428673600371"}}
{"index": {"_id":"20632"}}
{"id":"20632","stationno":"0240","name":"신매역","routeno":"대구 도시철도 2호선","location": {"lon":"128.704365383725","lat":"35.8407207598684"}}
{"index": {"_id":"20633"}}
{"id":"20633","stationno":"0241","name":"사월역","routeno":"대구 도시철도 2호선","location": {"lon":"128.71536176521","lat":"35.8367659042144"}}
{"index": {"_id":"20634"}}
{"id":"20634","stationno":"0242","name":"정평역","routeno":"대구 도시철도 2호선","location": {"lon":"128.728663","lat":"35.83408"}}
{"index": {"_id":"20635"}}
{"id":"20635","stationno":"0243","name":"임당역","routeno":"대구 도시철도 2호선","location": {"lon":"128.741061","lat":"35.83412"}}
{"index": {"_id":"20636"}}
{"id":"20636","stationno":"0244","name":"영남대역","routeno":"대구 도시철도 2호선","location": {"lon":"128.752962","lat":"35.836348"}}
{"index": {"_id":"20637"}}
{"id":"20637","stationno":"0312","name":"칠곡경대병원역","routeno":"대구 도시철도 3호선","location": {"lon":"128.559883085982","lat":"35.9584367790745"}}
{"index": {"_id":"20638"}}
{"id":"20638","stationno":"0313","name":"학정역","routeno":"대구 도시철도 3호선","location": {"lon":"128.559190385855","lat":"35.9515881374554"}}
{"index": {"_id":"20639"}}
{"id":"20639","stationno":"0314","name":"팔거역","routeno":"대구 도시철도 3호선","location": {"lon":"128.558361857539","lat":"35.9440795417482"}}
{"index": {"_id":"20640"}}
{"id":"20640","stationno":"0315","name":"동천역","routeno":"대구 도시철도 3호선","location": {"lon":"128.556638741007","lat":"35.9377067068866"}}
{"index": {"_id":"20641"}}
{"id":"20641","stationno":"0316","name":"칠곡운암역","routeno":"대구 도시철도 3호선","location": {"lon":"128.554550656999","lat":"35.9314777013873"}}
{"index": {"_id":"20642"}}
{"id":"20642","stationno":"0317","name":"구암역","routeno":"대구 도시철도 3호선","location": {"lon":"128.55032570799","lat":"35.9256614163023"}}
{"index": {"_id":"20643"}}
{"id":"20643","stationno":"0318","name":"태전역","routeno":"대구 도시철도 3호선","location": {"lon":"128.547393516476","lat":"35.9196710627982"}}
{"index": {"_id":"20644"}}
{"id":"20644","stationno":"0319","name":"매천역","routeno":"대구 도시철도 3호선","location": {"lon":"128.543375715345","lat":"35.9127617245837"}}
{"index": {"_id":"20645"}}
{"id":"20645","stationno":"0320","name":"매천시장역","routeno":"대구 도시철도 3호선","location": {"lon":"128.545780614929","lat":"35.9044306127524"}}
{"index": {"_id":"20646"}}
{"id":"20646","stationno":"0321","name":"팔달역","routeno":"대구 도시철도 3호선","location": {"lon":"128.546720225349","lat":"35.8978233001059"}}
{"index": {"_id":"20647"}}
{"id":"20647","stationno":"0322","name":"공단역","routeno":"대구 도시철도 3호선","location": {"lon":"128.553658338665","lat":"35.8918075221925"}}
{"index": {"_id":"20648"}}
{"id":"20648","stationno":"0323","name":"만평역","routeno":"대구 도시철도 3호선","location": {"lon":"128.561073121915","lat":"35.8898413887461"}}
{"index": {"_id":"20649"}}
{"id":"20649","stationno":"0324","name":"팔달시장역","routeno":"대구 도시철도 3호선","location": {"lon":"128.567891053718","lat":"35.8888395203414"}}
{"index": {"_id":"20650"}}
{"id":"20650","stationno":"0325","name":"원대역","routeno":"대구 도시철도 3호선","location": {"lon":"128.574393842702","lat":"35.8877806616568"}}
{"index": {"_id":"20651"}}
{"id":"20651","stationno":"0326","name":"북구청역","routeno":"대구 도시철도 3호선","location": {"lon":"128.581365449371","lat":"35.8839831049543"}}
{"index": {"_id":"20652"}}
{"id":"20652","stationno":"0327","name":"달성공원역","routeno":"대구 도시철도 3호선","location": {"lon":"128.582080902791","lat":"35.8756494594572"}}
{"index": {"_id":"20653"}}
{"id":"20653","stationno":"0328","name":"서문시장역","routeno":"대구 도시철도 3호선","location": {"lon":"128.58223914522","lat":"35.8697992183365"}}
{"index": {"_id":"20654"}}
{"id":"20654","stationno":"0329","name":"청라언덕역","routeno":"대구 도시철도 3호선","location": {"lon":"128.58236691022","lat":"35.8641536632169"}}
{"index": {"_id":"20655"}}
{"id":"20655","stationno":"0330","name":"남산역","routeno":"대구 도시철도 3호선","location": {"lon":"128.583225613213","lat":"35.8566823913952"}}
{"index": {"_id":"20656"}}
{"id":"20656","stationno":"0331","name":"명덕역","routeno":"대구 도시철도 3호선","location": {"lon":"128.590358222643","lat":"35.8568886138782"}}
{"index": {"_id":"20657"}}
{"id":"20657","stationno":"0332","name":"건들바위역","routeno":"대구 도시철도 3호선","location": {"lon":"128.599632942782","lat":"35.8553538214208"}}
{"index": {"_id":"20658"}}
{"id":"20658","stationno":"0333","name":"대봉교역","routeno":"대구 도시철도 3호선","location": {"lon":"128.606196541565","lat":"35.8549371407655"}}
{"index": {"_id":"20659"}}
{"id":"20659","stationno":"0334","name":"수성시장역","routeno":"대구 도시철도 3호선","location": {"lon":"128.616018084679","lat":"35.8542699562822"}}
{"index": {"_id":"20660"}}
{"id":"20660","stationno":"0335","name":"수성구민운동장역","routeno":"대구 도시철도 3호선","location": {"lon":"128.625349732628","lat":"35.8524415317807"}}
{"index": {"_id":"20661"}}
{"id":"20661","stationno":"0336","name":"어린이회관역","routeno":"대구 도시철도 3호선","location": {"lon":"128.624833412439","lat":"35.8450828543927"}}
{"index": {"_id":"20662"}}
{"id":"20662","stationno":"0337","name":"황금역","routeno":"대구 도시철도 3호선","location": {"lon":"128.624297684882","lat":"35.8391870732417"}}
{"index": {"_id":"20663"}}
{"id":"20663","stationno":"0338","name":"수성못역","routeno":"대구 도시철도 3호선","location": {"lon":"128.623607482234","lat":"35.8314189008567"}}
{"index": {"_id":"20664"}}
{"id":"20664","stationno":"0339","name":"지산역","routeno":"대구 도시철도 3호선","location": {"lon":"128.631552966852","lat":"35.8251265465088"}}
{"index": {"_id":"20665"}}
{"id":"20665","stationno":"0340","name":"범물역","routeno":"대구 도시철도 3호선","location": {"lon":"128.640230807997","lat":"35.8206806689923"}}
{"index": {"_id":"20666"}}
{"id":"20666","stationno":"0341","name":"용지역","routeno":"대구 도시철도 3호선","location": {"lon":"128.646877213182","lat":"35.8183813370558"}}
{"index": {"_id":"20667"}}
{"id":"20667","stationno":"3110","name":"계양역","routeno":"인천지하철 1호선","location": {"lon":"126.736319","lat":"37.571539"}}
{"index": {"_id":"20668"}}
{"id":"20668","stationno":"3111","name":"귤현역","routeno":"인천지하철 1호선","location": {"lon":"126.742498","lat":"37.566362"}}
{"index": {"_id":"20669"}}
{"id":"20669","stationno":"3112","name":"박촌역","routeno":"인천지하철 1호선","location": {"lon":"126.744946","lat":"37.553525"}}
{"index": {"_id":"20670"}}
{"id":"20670","stationno":"3113","name":"임학역","routeno":"인천지하철 1호선","location": {"lon":"126.738642","lat":"37.545058"}}
{"index": {"_id":"20671"}}
{"id":"20671","stationno":"3114","name":"계산역","routeno":"인천지하철 1호선","location": {"lon":"126.728436","lat":"37.543243"}}
{"index": {"_id":"20672"}}
{"id":"20672","stationno":"3115","name":"경인교대입구역","routeno":"인천지하철 1호선","location": {"lon":"126.722603","lat":"37.538272"}}
{"index": {"_id":"20673"}}
{"id":"20673","stationno":"3116","name":"작전역","routeno":"인천지하철 1호선","location": {"lon":"126.722548","lat":"37.530271"}}
{"index": {"_id":"20674"}}
{"id":"20674","stationno":"3117","name":"갈산역","routeno":"인천지하철 1호선","location": {"lon":"126.721566","lat":"37.517124"}}
{"index": {"_id":"20675"}}
{"id":"20675","stationno":"3118","name":"부평구청역","routeno":"인천지하철 1호선","location": {"lon":"126.720547","lat":"37.508768"}}
{"index": {"_id":"20676"}}
{"id":"20676","stationno":"3119","name":"부평시장역","routeno":"인천지하철 1호선","location": {"lon":"126.722282","lat":"37.498495"}}
{"index": {"_id":"20677"}}
{"id":"20677","stationno":"3120","name":"부평역","routeno":"인천지하철 1호선","location": {"lon":"126.723437","lat":"37.490541"}}
{"index": {"_id":"20678"}}
{"id":"20678","stationno":"3121","name":"동수역","routeno":"인천지하철 1호선","location": {"lon":"126.718464","lat":"37.485409"}}
{"index": {"_id":"20679"}}
{"id":"20679","stationno":"3122","name":"부평삼거리역","routeno":"인천지하철 1호선","location": {"lon":"126.710494","lat":"37.478267"}}
{"index": {"_id":"20680"}}
{"id":"20680","stationno":"3123","name":"간석오거리역","routeno":"인천지하철 1호선","location": {"lon":"126.707861","lat":"37.466921"}}
{"index": {"_id":"20681"}}
{"id":"20681","stationno":"3124","name":"인천시청역","routeno":"인천지하철 1호선","location": {"lon":"126.702216","lat":"37.457615"}}
{"index": {"_id":"20682"}}
{"id":"20682","stationno":"3125","name":"예술회관역","routeno":"인천지하철 1호선","location": {"lon":"126.700991","lat":"37.449334"}}
{"index": {"_id":"20683"}}
{"id":"20683","stationno":"3126","name":"인천터미널역","routeno":"인천지하철 1호선","location": {"lon":"126.699727","lat":"37.441917"}}
{"index": {"_id":"20684"}}
{"id":"20684","stationno":"3127","name":"문학경기장역","routeno":"인천지하철 1호선","location": {"lon":"126.698373","lat":"37.434964"}}
{"index": {"_id":"20685"}}
{"id":"20685","stationno":"3128","name":"선학역","routeno":"인천지하철 1호선","location": {"lon":"126.698872","lat":"37.426985"}}
{"index": {"_id":"20686"}}
{"id":"20686","stationno":"3129","name":"신연수역","routeno":"인천지하철 1호선","location": {"lon":"126.693853","lat":"37.418032"}}
{"index": {"_id":"20687"}}
{"id":"20687","stationno":"3130","name":"원인재역","routeno":"인천지하철 1호선","location": {"lon":"126.687893","lat":"37.412364"}}
{"index": {"_id":"20688"}}
{"id":"20688","stationno":"3131","name":"동춘역","routeno":"인천지하철 1호선","location": {"lon":"126.680835","lat":"37.404676"}}
{"index": {"_id":"20689"}}
{"id":"20689","stationno":"3132","name":"동막역","routeno":"인천지하철 1호선","location": {"lon":"126.673561","lat":"37.398173"}}
{"index": {"_id":"20690"}}
{"id":"20690","stationno":"3133","name":"캠퍼스타운역","routeno":"인천지하철 1호선","location": {"lon":"126.661985","lat":"37.388209"}}
{"index": {"_id":"20691"}}
{"id":"20691","stationno":"3134","name":"테크노파크역","routeno":"인천지하철 1호선","location": {"lon":"126.656355","lat":"37.382311"}}
{"index": {"_id":"20692"}}
{"id":"20692","stationno":"3135","name":"지식정보단지역","routeno":"인천지하철 1호선","location": {"lon":"126.645412","lat":"37.378021"}}
{"index": {"_id":"20693"}}
{"id":"20693","stationno":"3136","name":"인천대입구역","routeno":"인천지하철 1호선","location": {"lon":"126.639351","lat":"37.386239"}}
{"index": {"_id":"20694"}}
{"id":"20694","stationno":"3137","name":"센트럴파크역","routeno":"인천지하철 1호선","location": {"lon":"126.635002","lat":"37.392833"}}
{"index": {"_id":"20695"}}
{"id":"20695","stationno":"3138","name":"국제업무지구역","routeno":"인천지하철 1호선","location": {"lon":"126.630094","lat":"37.400464"}}
{"index": {"_id":"20696"}}
{"id":"20696","stationno":"3139","name":"송도달빛축제공원역","routeno":"인천지하철 1호선","location": {"lon":"126.6270537","lat":"37.40517495"}}
{"index": {"_id":"20697"}}
{"id":"20697","stationno":"3201","name":"검단오류역","routeno":"인천지하철 2호선","location": {"lon":"126.629206","lat":"37.595162"}}
{"index": {"_id":"20698"}}
{"id":"20698","stationno":"3202","name":"왕길역","routeno":"인천지하철 2호선","location": {"lon":"126.642284","lat":"37.592191"}}
{"index": {"_id":"20699"}}
{"id":"20699","stationno":"3203","name":"검단사거리역","routeno":"인천지하철 2호선","location": {"lon":"126.656545","lat":"37.601693"}}
{"index": {"_id":"20700"}}
{"id":"20700","stationno":"3204","name":"마전역","routeno":"인천지하철 2호선","location": {"lon":"126.667195","lat":"37.597756"}}
{"index": {"_id":"20701"}}
{"id":"20701","stationno":"3205","name":"완정역","routeno":"인천지하철 2호선","location": {"lon":"126.672961","lat":"37.592867"}}
{"index": {"_id":"20702"}}
{"id":"20702","stationno":"3206","name":"독정역","routeno":"인천지하철 2호선","location": {"lon":"126.675981","lat":"37.584927"}}
{"index": {"_id":"20703"}}
{"id":"20703","stationno":"3207","name":"검암역","routeno":"인천지하철 2호선","location": {"lon":"126.671221","lat":"37.568611"}}
{"index": {"_id":"20704"}}
{"id":"20704","stationno":"3208","name":"검바위역","routeno":"인천지하철 2호선","location": {"lon":"126.677529","lat":"37.561091"}}
{"index": {"_id":"20705"}}
{"id":"20705","stationno":"3209","name":"아시아드경기장역","routeno":"인천지하철 2호선","location": {"lon":"126.677075","lat":"37.551373"}}
{"index": {"_id":"20706"}}
{"id":"20706","stationno":"3210","name":"서구청역","routeno":"인천지하철 2호선","location": {"lon":"126.676795","lat":"37.543839"}}
{"index": {"_id":"20707"}}
{"id":"20707","stationno":"3211","name":"가정역","routeno":"인천지하철 2호선","location": {"lon":"126.675387","lat":"37.524805"}}
{"index": {"_id":"20708"}}
{"id":"20708","stationno":"3212","name":"가정중앙시장역","routeno":"인천지하철 2호선","location": {"lon":"126.676784","lat":"37.517511"}}
{"index": {"_id":"20709"}}
{"id":"20709","stationno":"3213","name":"석남역","routeno":"인천지하철 2호선","location": {"lon":"126.676304","lat":"37.507211"}}
{"index": {"_id":"20710"}}
{"id":"20710","stationno":"3214","name":"서부여성회관역","routeno":"인천지하철 2호선","location": {"lon":"126.675875","lat":"37.500298"}}
{"index": {"_id":"20711"}}
{"id":"20711","stationno":"3215","name":"인천가좌역","routeno":"인천지하철 2호선","location": {"lon":"126.675465","lat":"37.493762"}}
{"index": {"_id":"20712"}}
{"id":"20712","stationno":"3216","name":"가재울역","routeno":"인천지하철 2호선","location": {"lon":"126.683883","lat":"37.484152"}}
{"index": {"_id":"20713"}}
{"id":"20713","stationno":"3217","name":"주안국가산단역","routeno":"인천지하철 2호선","location": {"lon":"126.681702","lat":"37.473599"}}
{"index": {"_id":"20714"}}
{"id":"20714","stationno":"3218","name":"주안역","routeno":"인천지하철 2호선","location": {"lon":"126.680441","lat":"37.465517"}}
{"index": {"_id":"20715"}}
{"id":"20715","stationno":"3219","name":"시민공원역","routeno":"인천지하철 2호선","location": {"lon":"126.680091","lat":"37.458739"}}
{"index": {"_id":"20716"}}
{"id":"20716","stationno":"3220","name":"석바위시장역","routeno":"인천지하철 2호선","location": {"lon":"126.692387","lat":"37.457659"}}
{"index": {"_id":"20717"}}
{"id":"20717","stationno":"3221","name":"인천시청역","routeno":"인천지하철 2호선","location": {"lon":"126.701523","lat":"37.456904"}}
{"index": {"_id":"20718"}}
{"id":"20718","stationno":"3222","name":"석천사거리역","routeno":"인천지하철 2호선","location": {"lon":"126.710383","lat":"37.4569323"}}
{"index": {"_id":"20719"}}
{"id":"20719","stationno":"3223","name":"모래내시장역","routeno":"인천지하철 2호선","location": {"lon":"126.719578","lat":"37.455842"}}
{"index": {"_id":"20720"}}
{"id":"20720","stationno":"3224","name":"만수역","routeno":"인천지하철 2호선","location": {"lon":"126.731764","lat":"37.454962"}}
{"index": {"_id":"20721"}}
{"id":"20721","stationno":"3225","name":"남동구청역","routeno":"인천지하철 2호선","location": {"lon":"123.736581","lat":"37.448179"}}
{"index": {"_id":"20722"}}
{"id":"20722","stationno":"3226","name":"인천대공원역","routeno":"인천지하철 2호선","location": {"lon":"126.753051","lat":"37.448475"}}
{"index": {"_id":"20723"}}
{"id":"20723","stationno":"3227","name":"운연역","routeno":"인천지하철 2호선","location": {"lon":"126.759409","lat":"37.437924"}}
{"index": {"_id":"20724"}}
{"id":"20724","stationno":"3753","name":"까치울역","routeno":"도시철도 7호선","location": {"lon":"126.811398277418","lat":"37.506199783967"}}
{"index": {"_id":"20725"}}
{"id":"20725","stationno":"3754","name":"부천종합운동장역","routeno":"도시철도 7호선","location": {"lon":"126.797430023467","lat":"37.5054832436047"}}
{"index": {"_id":"20726"}}
{"id":"20726","stationno":"3755","name":"춘의역","routeno":"도시철도 7호선","location": {"lon":"126.786866385135","lat":"37.5036440878389"}}
{"index": {"_id":"20727"}}
{"id":"20727","stationno":"3756","name":"신중동역","routeno":"도시철도 7호선","location": {"lon":"126.776499055771","lat":"37.5029721503132"}}
{"index": {"_id":"20728"}}
{"id":"20728","stationno":"3757","name":"부천시청역","routeno":"도시철도 7호선","location": {"lon":"126.764060373737","lat":"37.5046422084139"}}
{"index": {"_id":"20729"}}
{"id":"20729","stationno":"3758","name":"상동역","routeno":"도시철도 7호선","location": {"lon":"126.753186951602","lat":"37.5058098548262"}}
{"index": {"_id":"20730"}}
{"id":"20730","stationno":"3759","name":"삼산체육관역","routeno":"도시철도 7호선","location": {"lon":"126.741906601707","lat":"37.5065825037123"}}
{"index": {"_id":"20731"}}
{"id":"20731","stationno":"3760","name":"굴포천역","routeno":"도시철도 7호선","location": {"lon":"126.731762426823","lat":"37.5070784308537"}}
{"index": {"_id":"20732"}}
{"id":"20732","stationno":"3761","name":"부평구청역","routeno":"도시철도 7호선","location": {"lon":"126.720857171937","lat":"37.5076064691635"}}
{"index": {"_id":"20733"}}
{"id":"20733","stationno":"3762","name":"산곡역","routeno":"도시철도 7호선","location": {"lon":"126.703343492272","lat":"37.5086150723109"}}
{"index": {"_id":"20734"}}
{"id":"20734","stationno":"3763","name":"석남역","routeno":"도시철도 7호선","location": {"lon":"126.67459056506","lat":"37.5062910033259"}}
{"index": {"_id":"20735"}}
{"id":"20735","stationno":"0095","name":"다대포해수욕장역","routeno":"부산 도시철도 1호선","location": {"lon":"128.965919","lat":"35.048429"}}
{"index": {"_id":"20736"}}
{"id":"20736","stationno":"0096","name":"다대포항역","routeno":"부산 도시철도 1호선","location": {"lon":"128.971251","lat":"35.057288"}}
{"index": {"_id":"20737"}}
{"id":"20737","stationno":"0097","name":"낫개역","routeno":"부산 도시철도 1호선","location": {"lon":"128.979932","lat":"35.065179"}}
{"index": {"_id":"20738"}}
{"id":"20738","stationno":"0098","name":"신장림역","routeno":"부산 도시철도 1호선","location": {"lon":"128.976638","lat":"35.074222"}}
{"index": {"_id":"20739"}}
{"id":"20739","stationno":"0099","name":"장림역","routeno":"부산 도시철도 1호선","location": {"lon":"128.977638","lat":"35.081555"}}
{"index": {"_id":"20740"}}
{"id":"20740","stationno":"0100","name":"동매역","routeno":"부산 도시철도 1호선","location": {"lon":"128.974029","lat":"35.089819"}}
{"index": {"_id":"20741"}}
{"id":"20741","stationno":"0101","name":"신평역","routeno":"부산 도시철도 1호선","location": {"lon":"128.96056","lat":"35.09556"}}
{"index": {"_id":"20742"}}
{"id":"20742","stationno":"0102","name":"하단역","routeno":"부산 도시철도 1호선","location": {"lon":"128.96667","lat":"35.10611"}}
{"index": {"_id":"20743"}}
{"id":"20743","stationno":"0103","name":"당리역","routeno":"부산 도시철도 1호선","location": {"lon":"128.97417","lat":"35.10333"}}
{"index": {"_id":"20744"}}
{"id":"20744","stationno":"0104","name":"사하역","routeno":"부산 도시철도 1호선","location": {"lon":"128.98333","lat":"35.09972"}}
{"index": {"_id":"20745"}}
{"id":"20745","stationno":"0105","name":"괴정역","routeno":"부산 도시철도 1호선","location": {"lon":"128.9925","lat":"35.1"}}
{"index": {"_id":"20746"}}
{"id":"20746","stationno":"0106","name":"대티역","routeno":"부산 도시철도 1호선","location": {"lon":"128.99972","lat":"35.10306"}}
{"index": {"_id":"20747"}}
{"id":"20747","stationno":"0107","name":"서대신역","routeno":"부산 도시철도 1호선","location": {"lon":"129.01194","lat":"35.11083"}}
{"index": {"_id":"20748"}}
{"id":"20748","stationno":"0108","name":"동대신역","routeno":"부산 도시철도 1호선","location": {"lon":"129.01778","lat":"35.11056"}}
{"index": {"_id":"20749"}}
{"id":"20749","stationno":"0109","name":"토성역","routeno":"부산 도시철도 1호선","location": {"lon":"129.01972","lat":"35.10083"}}
{"index": {"_id":"20750"}}
{"id":"20750","stationno":"0110","name":"자갈치역","routeno":"부산 도시철도 1호선","location": {"lon":"129.02694","lat":"35.0975"}}
{"index": {"_id":"20751"}}
{"id":"20751","stationno":"0111","name":"남포역","routeno":"부산 도시철도 1호선","location": {"lon":"129.03472","lat":"35.09778"}}
{"index": {"_id":"20752"}}
{"id":"20752","stationno":"0112","name":"중앙역","routeno":"부산 도시철도 1호선","location": {"lon":"129.03639","lat":"35.10389"}}
{"index": {"_id":"20753"}}
{"id":"20753","stationno":"0113","name":"부산역","routeno":"부산 도시철도 1호선","location": {"lon":"129.03972","lat":"35.11528"}}
{"index": {"_id":"20754"}}
{"id":"20754","stationno":"0114","name":"초량역","routeno":"부산 도시철도 1호선","location": {"lon":"129.04296","lat":"35.12111"}}
{"index": {"_id":"20755"}}
{"id":"20755","stationno":"0115","name":"부산진역","routeno":"부산 도시철도 1호선","location": {"lon":"129.04778","lat":"35.12778"}}
{"index": {"_id":"20756"}}
{"id":"20756","stationno":"0116","name":"좌천역","routeno":"부산 도시철도 1호선","location": {"lon":"129.05417","lat":"35.13417"}}
{"index": {"_id":"20757"}}
{"id":"20757","stationno":"0117","name":"범일역","routeno":"부산 도시철도 1호선","location": {"lon":"129.05944","lat":"35.14139"}}
{"index": {"_id":"20758"}}
{"id":"20758","stationno":"0118","name":"범내골역","routeno":"부산 도시철도 1호선","location": {"lon":"129.05917","lat":"35.14722"}}
{"index": {"_id":"20759"}}
{"id":"20759","stationno":"0119","name":"서면역","routeno":"부산 도시철도 1호선","location": {"lon":"129.05917","lat":"35.15778"}}
{"index": {"_id":"20760"}}
{"id":"20760","stationno":"0120","name":"부전역","routeno":"부산 도시철도 1호선","location": {"lon":"129.06278","lat":"35.1625"}}
{"index": {"_id":"20761"}}
{"id":"20761","stationno":"0121","name":"양정역","routeno":"부산 도시철도 1호선","location": {"lon":"129.07119","lat":"35.17304"}}
{"index": {"_id":"20762"}}
{"id":"20762","stationno":"0122","name":"시청역","routeno":"부산 도시철도 1호선","location": {"lon":"129.07667","lat":"35.17972"}}
{"index": {"_id":"20763"}}
{"id":"20763","stationno":"0123","name":"연산역","routeno":"부산 도시철도 1호선","location": {"lon":"129.08167","lat":"35.18611"}}
{"index": {"_id":"20764"}}
{"id":"20764","stationno":"0124","name":"교대역","routeno":"부산 도시철도 1호선","location": {"lon":"129.08","lat":"35.19583"}}
{"index": {"_id":"20765"}}
{"id":"20765","stationno":"0125","name":"동래역","routeno":"부산 도시철도 1호선","location": {"lon":"129.07861","lat":"35.20556"}}
{"index": {"_id":"20766"}}
{"id":"20766","stationno":"0126","name":"명륜역","routeno":"부산 도시철도 1호선","location": {"lon":"129.07944","lat":"35.21222"}}
{"index": {"_id":"20767"}}
{"id":"20767","stationno":"0127","name":"온천장역","routeno":"부산 도시철도 1호선","location": {"lon":"129.08667","lat":"35.22056"}}
{"index": {"_id":"20768"}}
{"id":"20768","stationno":"0128","name":"부산대역","routeno":"부산 도시철도 1호선","location": {"lon":"129.08944","lat":"35.23"}}
{"index": {"_id":"20769"}}
{"id":"20769","stationno":"0129","name":"장전역","routeno":"부산 도시철도 1호선","location": {"lon":"129.08806","lat":"35.23806"}}
{"index": {"_id":"20770"}}
{"id":"20770","stationno":"0130","name":"구서역","routeno":"부산 도시철도 1호선","location": {"lon":"129.09139","lat":"35.24722"}}
{"index": {"_id":"20771"}}
{"id":"20771","stationno":"0131","name":"두실역","routeno":"부산 도시철도 1호선","location": {"lon":"129.09139","lat":"35.25694"}}
{"index": {"_id":"20772"}}
{"id":"20772","stationno":"0132","name":"남산역","routeno":"부산 도시철도 1호선","location": {"lon":"129.0925","lat":"35.26528"}}
{"index": {"_id":"20773"}}
{"id":"20773","stationno":"0133","name":"범어사역","routeno":"부산 도시철도 1호선","location": {"lon":"129.09278","lat":"35.27333"}}
{"index": {"_id":"20774"}}
{"id":"20774","stationno":"0134","name":"노포역","routeno":"부산 도시철도 1호선","location": {"lon":"129.095","lat":"35.28361"}}
{"index": {"_id":"20775"}}
{"id":"20775","stationno":"0201","name":"장산역","routeno":"부산 도시철도 2호선","location": {"lon":"129.17694","lat":"35.17"}}
{"index": {"_id":"20776"}}
{"id":"20776","stationno":"0202","name":"중동역","routeno":"부산 도시철도 2호선","location": {"lon":"129.16617","lat":"35.16669"}}
{"index": {"_id":"20777"}}
{"id":"20777","stationno":"0203","name":"해운대역","routeno":"부산 도시철도 2호선","location": {"lon":"129.1745","lat":"35.18183"}}
{"index": {"_id":"20778"}}
{"id":"20778","stationno":"0204","name":"동백역","routeno":"부산 도시철도 2호선","location": {"lon":"129.14575","lat":"35.16147"}}
{"index": {"_id":"20779"}}
{"id":"20779","stationno":"0205","name":"벡스코역","routeno":"부산 도시철도 2호선","location": {"lon":"129.13631","lat":"35.16919"}}
{"index": {"_id":"20780"}}
{"id":"20780","stationno":"0206","name":"센텀시티역","routeno":"부산 도시철도 2호선","location": {"lon":"129.12947","lat":"35.16892"}}
{"index": {"_id":"20781"}}
{"id":"20781","stationno":"0207","name":"민락역","routeno":"부산 도시철도 2호선","location": {"lon":"129.11978","lat":"35.16722"}}
{"index": {"_id":"20782"}}
{"id":"20782","stationno":"0208","name":"수영역","routeno":"부산 도시철도 2호선","location": {"lon":"129.11242","lat":"35.16778"}}
{"index": {"_id":"20783"}}
{"id":"20783","stationno":"0209","name":"광안역","routeno":"부산 도시철도 2호선","location": {"lon":"129.11097","lat":"35.15792"}}
{"index": {"_id":"20784"}}
{"id":"20784","stationno":"0210","name":"금련산역","routeno":"부산 도시철도 2호선","location": {"lon":"129.10883","lat":"35.14989"}}
{"index": {"_id":"20785"}}
{"id":"20785","stationno":"0211","name":"남천역","routeno":"부산 도시철도 2호선","location": {"lon":"129.10797","lat":"35.14217"}}
{"index": {"_id":"20786"}}
{"id":"20786","stationno":"0212","name":"경성대·부경대역","routeno":"부산 도시철도 2호선","location": {"lon":"129.10055","lat":"35.13757"}}
{"index": {"_id":"20787"}}
{"id":"20787","stationno":"0213","name":"대연역","routeno":"부산 도시철도 2호선","location": {"lon":"129.09218","lat":"35.13512"}}
{"index": {"_id":"20788"}}
{"id":"20788","stationno":"0214","name":"못골역","routeno":"부산 도시철도 2호선","location": {"lon":"129.08442","lat":"35.13472"}}
{"index": {"_id":"20789"}}
{"id":"20789","stationno":"0215","name":"지게골역","routeno":"부산 도시철도 2호선","location": {"lon":"129.07436","lat":"35.13558"}}
{"index": {"_id":"20790"}}
{"id":"20790","stationno":"0216","name":"문현역","routeno":"부산 도시철도 2호선","location": {"lon":"129.06736","lat":"35.13911"}}
{"index": {"_id":"20791"}}
{"id":"20791","stationno":"0217","name":"국제금융센터·부산은행역","routeno":"부산 도시철도 2호선","location": {"lon":"129.06672","lat":"35.14583"}}
{"index": {"_id":"20792"}}
{"id":"20792","stationno":"0218","name":"전포역","routeno":"부산 도시철도 2호선","location": {"lon":"129.06533","lat":"35.15311"}}
{"index": {"_id":"20793"}}
{"id":"20793","stationno":"0219","name":"서면역","routeno":"부산 도시철도 2호선","location": {"lon":"129.05917","lat":"35.15778"}}
{"index": {"_id":"20794"}}
{"id":"20794","stationno":"0220","name":"부암역","routeno":"부산 도시철도 2호선","location": {"lon":"129.05019","lat":"35.15744"}}
{"index": {"_id":"20795"}}
{"id":"20795","stationno":"0221","name":"가야역","routeno":"부산 도시철도 2호선","location": {"lon":"129.04283","lat":"35.15589"}}
{"index": {"_id":"20796"}}
{"id":"20796","stationno":"0222","name":"동의대역","routeno":"부산 도시철도 2호선","location": {"lon":"129.0325","lat":"35.15411"}}
{"index": {"_id":"20797"}}
{"id":"20797","stationno":"0223","name":"개금역","routeno":"부산 도시철도 2호선","location": {"lon":"129.02056","lat":"35.15325"}}
{"index": {"_id":"20798"}}
{"id":"20798","stationno":"0224","name":"냉정역","routeno":"부산 도시철도 2호선","location": {"lon":"129.01228","lat":"35.15125"}}
{"index": {"_id":"20799"}}
{"id":"20799","stationno":"0225","name":"주례역","routeno":"부산 도시철도 2호선","location": {"lon":"129.00306","lat":"35.1505"}}
{"index": {"_id":"20800"}}
{"id":"20800","stationno":"0226","name":"감전역","routeno":"부산 도시철도 2호선","location": {"lon":"128.99114","lat":"35.15553"}}
{"index": {"_id":"20801"}}
{"id":"20801","stationno":"0227","name":"사상역","routeno":"부산 도시철도 2호선","location": {"lon":"128.98467","lat":"35.16218"}}
{"index": {"_id":"20802"}}
{"id":"20802","stationno":"0228","name":"덕포역","routeno":"부산 도시철도 2호선","location": {"lon":"128.98394","lat":"35.17378"}}
{"index": {"_id":"20803"}}
{"id":"20803","stationno":"0229","name":"모덕역","routeno":"부산 도시철도 2호선","location": {"lon":"128.98561","lat":"35.18036"}}
{"index": {"_id":"20804"}}
{"id":"20804","stationno":"0230","name":"모라역","routeno":"부산 도시철도 2호선","location": {"lon":"128.98864","lat":"35.18967"}}
{"index": {"_id":"20805"}}
{"id":"20805","stationno":"0231","name":"구남역","routeno":"부산 도시철도 2호선","location": {"lon":"128.99492","lat":"35.19681"}}
{"index": {"_id":"20806"}}
{"id":"20806","stationno":"0232","name":"구명역","routeno":"부산 도시철도 2호선","location": {"lon":"128.99931","lat":"35.20253"}}
{"index": {"_id":"20807"}}
{"id":"20807","stationno":"0233","name":"덕천역","routeno":"부산 도시철도 2호선","location": {"lon":"129.00533","lat":"35.21011"}}
{"index": {"_id":"20808"}}
{"id":"20808","stationno":"0234","name":"수정역","routeno":"부산 도시철도 2호선","location": {"lon":"129.00922","lat":"35.22336"}}
{"index": {"_id":"20809"}}
{"id":"20809","stationno":"0235","name":"화명역","routeno":"부산 도시철도 2호선","location": {"lon":"129.00767","lat":"35.2345"}}
{"index": {"_id":"20810"}}
{"id":"20810","stationno":"0236","name":"율리역","routeno":"부산 도시철도 2호선","location": {"lon":"129.01292","lat":"35.24672"}}
{"index": {"_id":"20811"}}
{"id":"20811","stationno":"0237","name":"동원역","routeno":"부산 도시철도 2호선","location": {"lon":"129.01242","lat":"35.25864"}}
{"index": {"_id":"20812"}}
{"id":"20812","stationno":"0238","name":"금곡역","routeno":"부산 도시철도 2호선","location": {"lon":"129.01686","lat":"35.26733"}}
{"index": {"_id":"20813"}}
{"id":"20813","stationno":"0239","name":"호포역","routeno":"부산 도시철도 2호선","location": {"lon":"129.01725","lat":"35.281"}}
{"index": {"_id":"20814"}}
{"id":"20814","stationno":"0240","name":"증산역","routeno":"부산 도시철도 2호선","location": {"lon":"129.01028","lat":"35.30828"}}
{"index": {"_id":"20815"}}
{"id":"20815","stationno":"0241","name":"부산대양산캠퍼스역","routeno":"부산 도시철도 2호선","location": {"lon":"129.01383","lat":"35.31697"}}
{"index": {"_id":"20816"}}
{"id":"20816","stationno":"0242","name":"남양산역","routeno":"부산 도시철도 2호선","location": {"lon":"129.01942","lat":"35.32533"}}
{"index": {"_id":"20817"}}
{"id":"20817","stationno":"0243","name":"양산역","routeno":"부산 도시철도 2호선","location": {"lon":"129.02673","lat":"35.33851"}}
{"index": {"_id":"20818"}}
{"id":"20818","stationno":"0301","name":"수영역","routeno":"부산 도시철도 3호선","location": {"lon":"129.11458","lat":"35.16775"}}
{"index": {"_id":"20819"}}
{"id":"20819","stationno":"0302","name":"망미역","routeno":"부산 도시철도 3호선","location": {"lon":"129.10822","lat":"35.17153"}}
{"index": {"_id":"20820"}}
{"id":"20820","stationno":"0303","name":"배산역","routeno":"부산 도시철도 3호선","location": {"lon":"129.0955","lat":"35.1735"}}
{"index": {"_id":"20821"}}
{"id":"20821","stationno":"0304","name":"물만골역","routeno":"부산 도시철도 3호선","location": {"lon":"129.08575","lat":"35.17681"}}
{"index": {"_id":"20822"}}
{"id":"20822","stationno":"0305","name":"연산역","routeno":"부산 도시철도 3호선","location": {"lon":"129.08147","lat":"35.18614"}}
{"index": {"_id":"20823"}}
{"id":"20823","stationno":"0306","name":"거제역","routeno":"부산 도시철도 3호선","location": {"lon":"129.07394","lat":"35.18858"}}
{"index": {"_id":"20824"}}
{"id":"20824","stationno":"0307","name":"종합운동장역","routeno":"부산 도시철도 3호선","location": {"lon":"129.0675","lat":"35.19125"}}
{"index": {"_id":"20825"}}
{"id":"20825","stationno":"0308","name":"사직역","routeno":"부산 도시철도 3호선","location": {"lon":"129.065","lat":"35.199"}}
{"index": {"_id":"20826"}}
{"id":"20826","stationno":"0309","name":"미남역","routeno":"부산 도시철도 3호선","location": {"lon":"129.06806","lat":"35.2055"}}
{"index": {"_id":"20827"}}
{"id":"20827","stationno":"0310","name":"만덕역","routeno":"부산 도시철도 3호선","location": {"lon":"129.0365","lat":"35.213"}}
{"index": {"_id":"20828"}}
{"id":"20828","stationno":"0311","name":"남산정역","routeno":"부산 도시철도 3호선","location": {"lon":"129.02392","lat":"35.21333"}}
{"index": {"_id":"20829"}}
{"id":"20829","stationno":"0312","name":"숙등역","routeno":"부산 도시철도 3호선","location": {"lon":"129.01275","lat":"35.21197"}}
{"index": {"_id":"20830"}}
{"id":"20830","stationno":"0313","name":"덕천역","routeno":"부산 도시철도 3호선","location": {"lon":"129.00525","lat":"35.21039"}}
{"index": {"_id":"20831"}}
{"id":"20831","stationno":"0314","name":"구포역","routeno":"부산 도시철도 3호선","location": {"lon":"128.99711","lat":"35.20544"}}
{"index": {"_id":"20832"}}
{"id":"20832","stationno":"0315","name":"강서구청역","routeno":"부산 도시철도 3호선","location": {"lon":"128.98175","lat":"35.21125"}}
{"index": {"_id":"20833"}}
{"id":"20833","stationno":"0316","name":"체육공원역","routeno":"부산 도시철도 3호선","location": {"lon":"128.96894","lat":"35.21261"}}
{"index": {"_id":"20834"}}
{"id":"20834","stationno":"0317","name":"대저역","routeno":"부산 도시철도 3호선","location": {"lon":"128.95994","lat":"35.21353"}}
{"index": {"_id":"20835"}}
{"id":"20835","stationno":"0401","name":"미남역","routeno":"부산 경량도시철도 4호선","location": {"lon":"129.06868","lat":"35.20643"}}
{"index": {"_id":"20836"}}
{"id":"20836","stationno":"0402","name":"동래역","routeno":"부산 경량도시철도 4호선","location": {"lon":"129.07861","lat":"35.20556"}}
{"index": {"_id":"20837"}}
{"id":"20837","stationno":"0403","name":"수안역","routeno":"부산 경량도시철도 4호선","location": {"lon":"129.08378","lat":"35.20183"}}
{"index": {"_id":"20838"}}
{"id":"20838","stationno":"0404","name":"낙민역","routeno":"부산 경량도시철도 4호선","location": {"lon":"129.09078","lat":"35.20025"}}
{"index": {"_id":"20839"}}
{"id":"20839","stationno":"0405","name":"충렬사역","routeno":"부산 경량도시철도 4호선","location": {"lon":"129.09764","lat":"35.19986"}}
{"index": {"_id":"20840"}}
{"id":"20840","stationno":"0406","name":"명장역","routeno":"부산 경량도시철도 4호선","location": {"lon":"129.10161","lat":"35.20503"}}
{"index": {"_id":"20841"}}
{"id":"20841","stationno":"0407","name":"서동역","routeno":"부산 경량도시철도 4호선","location": {"lon":"129.10769","lat":"35.21331"}}
{"index": {"_id":"20842"}}
{"id":"20842","stationno":"0408","name":"금사역","routeno":"부산 경량도시철도 4호선","location": {"lon":"129.11517","lat":"35.21583"}}
{"index": {"_id":"20843"}}
{"id":"20843","stationno":"0409","name":"반여농산물시장역","routeno":"부산 경량도시철도 4호선","location": {"lon":"129.12397","lat":"35.21778"}}
{"index": {"_id":"20844"}}
{"id":"20844","stationno":"0410","name":"석대역","routeno":"부산 경량도시철도 4호선","location": {"lon":"129.13717","lat":"35.21825"}}
{"index": {"_id":"20845"}}
{"id":"20845","stationno":"0411","name":"영산대역","routeno":"부산 경량도시철도 4호선","location": {"lon":"129.14617","lat":"35.22578"}}
{"index": {"_id":"20846"}}
{"id":"20846","stationno":"0412","name":"윗반송역","routeno":"부산 경량도시철도 4호선","location": {"lon":"129.15403","lat":"35.2325"}}
{"index": {"_id":"20847"}}
{"id":"20847","stationno":"0413","name":"고촌역","routeno":"부산 경량도시철도 4호선","location": {"lon":"129.1605","lat":"35.23603"}}
{"index": {"_id":"20848"}}
{"id":"20848","stationno":"0414","name":"안평역","routeno":"부산 경량도시철도 4호선","location": {"lon":"129.17183","lat":"35.23733"}}
{"index": {"_id":"20849"}}
{"id":"20849","stationno":"Y110","name":"기흥역","routeno":"에버라인","location": {"lon":"127.11704646","lat":"37.27545288"}}
{"index": {"_id":"20850"}}
{"id":"20850","stationno":"Y111","name":"강남대역","routeno":"에버라인","location": {"lon":"127.12606689","lat":"37.27017073"}}
{"index": {"_id":"20851"}}
{"id":"20851","stationno":"Y112","name":"지석역","routeno":"에버라인","location": {"lon":"127.1363256","lat":"37.26973732"}}
{"index": {"_id":"20852"}}
{"id":"20852","stationno":"Y113","name":"어정역","routeno":"에버라인","location": {"lon":"127.14374987","lat":"37.27495132"}}
{"index": {"_id":"20853"}}
{"id":"20853","stationno":"Y114","name":"동백역","routeno":"에버라인","location": {"lon":"127.15269056","lat":"37.26910138"}}
{"index": {"_id":"20854"}}
{"id":"20854","stationno":"Y115","name":"초당역","routeno":"에버라인","location": {"lon":"127.15946924","lat":"37.26080647"}}
{"index": {"_id":"20855"}}
{"id":"20855","stationno":"Y116","name":"삼가역","routeno":"에버라인","location": {"lon":"127.16817999","lat":"37.24205993"}}
{"index": {"_id":"20856"}}
{"id":"20856","stationno":"Y117","name":"시청·용인대역","routeno":"에버라인","location": {"lon":"127.17888509","lat":"37.23944203"}}
{"index": {"_id":"20857"}}
{"id":"20857","stationno":"Y118","name":"명지대역","routeno":"에버라인","location": {"lon":"127.19029131","lat":"37.23807629"}}
{"index": {"_id":"20858"}}
{"id":"20858","stationno":"Y119","name":"김량장역","routeno":"에버라인","location": {"lon":"127.19861088","lat":"37.23732377"}}
{"index": {"_id":"20859"}}
{"id":"20859","stationno":"Y120","name":"운동장·송담대역","routeno":"에버라인","location": {"lon":"127.20905264","lat":"37.2379113"}}
{"index": {"_id":"20860"}}
{"id":"20860","stationno":"Y121","name":"고진역","routeno":"에버라인","location": {"lon":"127.2141836","lat":"37.24463834"}}
{"index": {"_id":"20861"}}
{"id":"20861","stationno":"Y122","name":"보평역","routeno":"에버라인","location": {"lon":"127.21848077","lat":"37.25896427"}}
{"index": {"_id":"20862"}}
{"id":"20862","stationno":"Y123","name":"둔전역","routeno":"에버라인","location": {"lon":"127.21363872","lat":"37.26721222"}}
{"index": {"_id":"20863"}}
{"id":"20863","stationno":"Y124","name":"전대·에버랜드역","routeno":"에버라인","location": {"lon":"127.21950897","lat":"37.28541327"}}
{"index": {"_id":"20864"}}
{"id":"20864","stationno":"0001","name":"사상역","routeno":"부산김해경전철","location": {"lon":"128.9859407570","lat":"35.1623018019"}}
{"index": {"_id":"20865"}}
{"id":"20865","stationno":"0002","name":"괘법르네시떼역","routeno":"부산김해경전철","location": {"lon":"128.9776836014","lat":"35.1632615956"}}
{"index": {"_id":"20866"}}
{"id":"20866","stationno":"0003","name":"서부산유통지구역","routeno":"부산김해경전철","location": {"lon":"128.9548881388","lat":"35.1664020385"}}
{"index": {"_id":"20867"}}
{"id":"20867","stationno":"0004","name":"공항역","routeno":"부산김해경전철","location": {"lon":"128.9485868461","lat":"35.1719068103"}}
{"index": {"_id":"20868"}}
{"id":"20868","stationno":"0005","name":"덕두역","routeno":"부산김해경전철","location": {"lon":"128.9541983025","lat":"35.1820003381"}}
{"index": {"_id":"20869"}}
{"id":"20869","stationno":"0006","name":"등구역","routeno":"부산김해경전철","location": {"lon":"128.9635989995","lat":"35.1961434172"}}
{"index": {"_id":"20870"}}
{"id":"20870","stationno":"0007","name":"대저역","routeno":"부산김해경전철","location": {"lon":"128.9605622452","lat":"35.2130661412"}}
{"index": {"_id":"20871"}}
{"id":"20871","stationno":"0008","name":"평강역","routeno":"부산김해경전철","location": {"lon":"128.9508848930","lat":"35.2142567092"}}
{"index": {"_id":"20872"}}
{"id":"20872","stationno":"0009","name":"대사역","routeno":"부산김해경전철","location": {"lon":"128.9384172391","lat":"35.2176572092"}}
{"index": {"_id":"20873"}}
{"id":"20873","stationno":"0010","name":"불암역","routeno":"부산김해경전철","location": {"lon":"128.9278930774","lat":"35.2221625997"}}
{"index": {"_id":"20874"}}
{"id":"20874","stationno":"0011","name":"지내역","routeno":"부산김해경전철","location": {"lon":"128.9237212973","lat":"35.2275007024"}}
{"index": {"_id":"20875"}}
{"id":"20875","stationno":"0012","name":"김해대학역","routeno":"부산김해경전철","location": {"lon":"128.9156126451","lat":"35.2289957963"}}
{"index": {"_id":"20876"}}
{"id":"20876","stationno":"0013","name":"인제대역","routeno":"부산김해경전철","location": {"lon":"128.9017359525","lat":"35.2280994658"}}
{"index": {"_id":"20877"}}
{"id":"20877","stationno":"0014","name":"김해시청역","routeno":"부산김해경전철","location": {"lon":"128.8904106972","lat":"35.2271030385"}}
{"index": {"_id":"20878"}}
{"id":"20878","stationno":"0015","name":"부원역","routeno":"부산김해경전철","location": {"lon":"128.8838996774","lat":"35.2264662369"}}
{"index": {"_id":"20879"}}
{"id":"20879","stationno":"0016","name":"봉황역","routeno":"부산김해경전철","location": {"lon":"128.8743069488","lat":"35.2272675650"}}
{"index": {"_id":"20880"}}
{"id":"20880","stationno":"0017","name":"수로왕릉역","routeno":"부산김해경전철","location": {"lon":"128.8721409276","lat":"35.2328214954"}}
{"index": {"_id":"20881"}}
{"id":"20881","stationno":"0018","name":"박물관역","routeno":"부산김해경전철","location": {"lon":"128.8718627711","lat":"35.2400646663"}}
{"index": {"_id":"20882"}}
{"id":"20882","stationno":"0019","name":"연지공원역","routeno":"부산김해경전철","location": {"lon":"128.8692908342","lat":"35.2496576259"}}
{"index": {"_id":"20883"}}
{"id":"20883","stationno":"0020","name":"장신대역","routeno":"부산김해경전철","location": {"lon":"128.8671141931","lat":"35.2595564155"}}
{"index": {"_id":"20884"}}
{"id":"20884","stationno":"0021","name":"가야대역","routeno":"부산김해경전철","location": {"lon":"128.8650703496","lat":"35.2667272134"}}
{"index": {"_id":"20885"}}
{"id":"20885","stationno":"A01","name":"서울역","routeno":"인천국제공항선","location": {"lon":"126.970464251575","lat":"37.5491178426399"}}
{"index": {"_id":"20886"}}
{"id":"20886","stationno":"A02","name":"공덕역","routeno":"인천국제공항선","location": {"lon":"126.951330074129","lat":"37.5428405531108"}}
{"index": {"_id":"20887"}}
{"id":"20887","stationno":"A03","name":"홍대입구역","routeno":"인천국제공항선","location": {"lon":"126.926493919073","lat":"37.55774102785"}}
{"index": {"_id":"20888"}}
{"id":"20888","stationno":"A04","name":"디지털미디어시티역","routeno":"인천국제공항선","location": {"lon":"126.89902052373","lat":"37.57682543557"}}
{"index": {"_id":"20889"}}
{"id":"20889","stationno":"A042","name":"마곡나루역","routeno":"인천국제공항선","location": {"lon":"126.827635784835","lat":"37.5658191364034"}}
{"index": {"_id":"20890"}}
{"id":"20890","stationno":"A05","name":"김포공항역","routeno":"인천국제공항선","location": {"lon":"126.801544248079","lat":"37.5621165172316"}}
{"index": {"_id":"20891"}}
{"id":"20891","stationno":"A06","name":"계양역","routeno":"인천국제공항선","location": {"lon":"126.736022955527","lat":"37.5716072070584"}}
{"index": {"_id":"20892"}}
{"id":"20892","stationno":"A07","name":"검암역","routeno":"인천국제공항선","location": {"lon":"126.673535666948","lat":"37.5690254742206"}}
{"index": {"_id":"20893"}}
{"id":"20893","stationno":"A071","name":"청라국제도시역","routeno":"인천국제공항선","location": {"lon":"126.62872544718","lat":"37.5560989736379"}}
{"index": {"_id":"20894"}}
{"id":"20894","stationno":"A072","name":"영종역","routeno":"인천국제공항선","location": {"lon":"126.524247093625","lat":"37.5120981382396"}}
{"index": {"_id":"20895"}}
{"id":"20895","stationno":"A08","name":"운서역","routeno":"인천국제공항선","location": {"lon":"126.493661854145","lat":"37.4928446315569"}}
{"index": {"_id":"20896"}}
{"id":"20896","stationno":"A09","name":"공항화물청사역","routeno":"인천국제공항선","location": {"lon":"126.477433280428","lat":"37.4590261057896"}}
{"index": {"_id":"20897"}}
{"id":"20897","stationno":"A10","name":"인천공항1터미널역","routeno":"인천국제공항선","location": {"lon":"126.452343266281","lat":"37.4476067155752"}}
{"index": {"_id":"20898"}}
{"id":"20898","stationno":"A11","name":"인천공항2터미널역","routeno":"인천국제공항선","location": {"lon":"126.427535579434","lat":"37.4582687391643"}}
{"index": {"_id":"20899"}}
{"id":"20899","stationno":"S110","name":"북한산우이역","routeno":"우이신설선","location": {"lon":"127.012702176264","lat":"37.6629661525542"}}
{"index": {"_id":"20900"}}
{"id":"20900","stationno":"S111","name":"솔밭공원역","routeno":"우이신설선","location": {"lon":"127.013091650663","lat":"37.6561546882896"}}
{"index": {"_id":"20901"}}
{"id":"20901","stationno":"S112","name":"4.19민주묘지역","routeno":"우이신설선","location": {"lon":"127.013478245674","lat":"37.6494786329719"}}
{"index": {"_id":"20902"}}
{"id":"20902","stationno":"S113","name":"가오리역","routeno":"우이신설선","location": {"lon":"127.016940435565","lat":"37.641713417798"}}
{"index": {"_id":"20903"}}
{"id":"20903","stationno":"S114","name":"화계역","routeno":"우이신설선","location": {"lon":"127.0172978051","lat":"37.6339304770753"}}
{"index": {"_id":"20904"}}
{"id":"20904","stationno":"S115","name":"삼양역","routeno":"우이신설선","location": {"lon":"127.018198221331","lat":"37.626835165677"}}
{"index": {"_id":"20905"}}
{"id":"20905","stationno":"S116","name":"삼양사거리역","routeno":"우이신설선","location": {"lon":"127.020237295242","lat":"37.6214280999689"}}
{"index": {"_id":"20906"}}
{"id":"20906","stationno":"S117","name":"솔샘역","routeno":"우이신설선","location": {"lon":"127.013408969328","lat":"37.6202522935181"}}
{"index": {"_id":"20907"}}
{"id":"20907","stationno":"S118","name":"북한산보국문역","routeno":"우이신설선","location": {"lon":"127.008208009279","lat":"37.6121461272569"}}
{"index": {"_id":"20908"}}
{"id":"20908","stationno":"S119","name":"정릉역","routeno":"우이신설선","location": {"lon":"127.013496185509","lat":"37.6026876819314"}}
{"index": {"_id":"20909"}}
{"id":"20909","stationno":"S120","name":"성신여대입구역","routeno":"우이신설선","location": {"lon":"127.016539","lat":"37.592709"}}
{"index": {"_id":"20910"}}
{"id":"20910","stationno":"S121","name":"보문역","routeno":"우이신설선","location": {"lon":"127.019790458317","lat":"37.5847632748488"}}
{"index": {"_id":"20911"}}
{"id":"20911","stationno":"S122","name":"신설동역","routeno":"우이신설선","location": {"lon":"127.023278761358","lat":"37.5762451837487"}}
{"index": {"_id":"20912"}}
{"id":"20912","stationno":"D004","name":"신사역","routeno":"신분당선","location": {"lon":"37.5161252633129","lat":"127.019760916726"}}
{"index": {"_id":"20913"}}
{"id":"20913","stationno":"D005","name":"논현역","routeno":"신분당선","location": {"lon":"37.5111153846379","lat":"127.021365807131"}}
{"index": {"_id":"20914"}}
{"id":"20914","stationno":"D006","name":"신논현역","routeno":"신분당선","location": {"lon":"37.504555429592","lat":"127.024530640799"}}
{"index": {"_id":"20915"}}
{"id":"20915","stationno":"D007","name":"강남역","routeno":"신분당선","location": {"lon":"37.4973854397871","lat":"127.02787893753"}}
{"index": {"_id":"20916"}}
{"id":"20916","stationno":"D008","name":"양재역","routeno":"신분당선","location": {"lon":"37.4844535239588","lat":"127.034099452522"}}
{"index": {"_id":"20917"}}
{"id":"20917","stationno":"D009","name":"양재시민의숲역","routeno":"신분당선","location": {"lon":"37.4709638768813","lat":"127.038420263319"}}
{"index": {"_id":"20918"}}
{"id":"20918","stationno":"D010","name":"청계산입구역","routeno":"신분당선","location": {"lon":"37.4487148450701","lat":"127.054339616958"}}
{"index": {"_id":"20919"}}
{"id":"20919","stationno":"D011","name":"판교역","routeno":"신분당선","location": {"lon":"37.3957147534829","lat":"127.111210738619"}}
{"index": {"_id":"20920"}}
{"id":"20920","stationno":"D012","name":"정자역","routeno":"신분당선","location": {"lon":"37.3682101915529","lat":"127.108385905864"}}
{"index": {"_id":"20921"}}
{"id":"20921","stationno":"D013","name":"미금역","routeno":"신분당선","location": {"lon":"37.3511833209472","lat":"127.108902778591"}}
{"index": {"_id":"20922"}}
{"id":"20922","stationno":"D014","name":"동천역","routeno":"신분당선","location": {"lon":"37.3386841329961","lat":"127.102793673668"}}
{"index": {"_id":"20923"}}
{"id":"20923","stationno":"D015","name":"수지구청역","routeno":"신분당선","location": {"lon":"37.3230089609191","lat":"127.095581285703"}}
{"index": {"_id":"20924"}}
{"id":"20924","stationno":"D016","name":"성복역","routeno":"신분당선","location": {"lon":"37.3140425091456","lat":"127.080757826931"}}
{"index": {"_id":"20925"}}
{"id":"20925","stationno":"D017","name":"상현역","routeno":"신분당선","location": {"lon":"37.2986852587224","lat":"127.06957991138"}}
{"index": {"_id":"20926"}}
{"id":"20926","stationno":"D018","name":"광교중앙역","routeno":"신분당선","location": {"lon":"37.2877375194967","lat":"127.052625032841"}}
{"index": {"_id":"20927"}}
{"id":"20927","stationno":"D019","name":"광교역","routeno":"신분당선","location": {"lon":"37.3017347422146","lat":"127.044856131638"}}
{"index": {"_id":"20928"}}
{"id":"20928","stationno":"S401","name":"샛강역","routeno":"수도권 경량도시철도 신림선","location": {"lon":"126.929403964","lat":"37.517219937"}}
{"index": {"_id":"20929"}}
{"id":"20929","stationno":"S402","name":"대방역","routeno":"수도권 경량도시철도 신림선","location": {"lon":"126.925316781","lat":"37.512840166"}}
{"index": {"_id":"20930"}}
{"id":"20930","stationno":"S403","name":"서울지방병무청역","routeno":"수도권 경량도시철도 신림선","location": {"lon":"126.922783404","lat":"37.50604687"}}
{"index": {"_id":"20931"}}
{"id":"20931","stationno":"S404","name":"보라매역","routeno":"수도권 경량도시철도 신림선","location": {"lon":"126.920485864","lat":"37.500312709"}}
{"index": {"_id":"20932"}}
{"id":"20932","stationno":"S405","name":"보라매공원역","routeno":"수도권 경량도시철도 신림선","location": {"lon":"126.918258811","lat":"37.495225405"}}
{"index": {"_id":"20933"}}
{"id":"20933","stationno":"S406","name":"보라매병원역","routeno":"수도권 경량도시철도 신림선","location": {"lon":"126.923886086","lat":"37.493071762"}}
{"index": {"_id":"20934"}}
{"id":"20934","stationno":"S407","name":"당곡역","routeno":"수도권 경량도시철도 신림선","location": {"lon":"126.927568759","lat":"37.490039105"}}
{"index": {"_id":"20935"}}
{"id":"20935","stationno":"S408","name":"신림역","routeno":"수도권 경량도시철도 신림선","location": {"lon":"126.92960992","lat":"37.484890755"}}
{"index": {"_id":"20936"}}
{"id":"20936","stationno":"S409","name":"서원역","routeno":"수도권 경량도시철도 신림선","location": {"lon":"126.933228219","lat":"37.47827336"}}
{"index": {"_id":"20937"}}
{"id":"20937","stationno":"S410","name":"서울대벤처타운역","routeno":"수도권 경량도시철도 신림선","location": {"lon":"126.933976556","lat":"37.47204068"}}
{"index": {"_id":"20938"}}
{"id":"20938","stationno":"S411","name":"관악산역","routeno":"수도권 경량도시철도 신림선","location": {"lon":"126.944954837","lat":"37.46916896"}}
{"index": {"_id":"20939"}}
{"id":"20939","stationno":"101","name":"인천국제공항역","routeno":"자기부상철도","location": {"lon":"126.452346738588","lat":"37.4476109663729"}}
{"index": {"_id":"20940"}}
{"id":"20940","stationno":"102","name":"장기주차장역","routeno":"자기부상철도","location": {"lon":"126.452346738588","lat":"37.4476109663729"}}
{"index": {"_id":"20941"}}
{"id":"20941","stationno":"103","name":"합동청사역","routeno":"자기부상철도","location": {"lon":"126.452346738588","lat":"37.4476109663729"}}
{"index": {"_id":"20942"}}
{"id":"20942","stationno":"104","name":"파라다이스시티역","routeno":"자기부상철도","location": {"lon":"126.452346738588","lat":"37.4476109663729"}}
{"index": {"_id":"20943"}}
{"id":"20943","stationno":"105","name":"워터파크역","routeno":"자기부상철도","location": {"lon":"126.452346738588","lat":"37.4476109663729"}}
{"index": {"_id":"20944"}}
{"id":"20944","stationno":"106","name":"용유역","routeno":"자기부상철도","location": {"lon":"126.435243768844","lat":"37.4321580009205"}}
{"index": {"_id":"20945"}}
{"id":"20945","stationno":"G100","name":"양촌역","routeno":"김포골드라인","location": {"lon":"126.614793553937","lat":"37.6416469973805"}}
{"index": {"_id":"20946"}}
{"id":"20946","stationno":"G101","name":"구래역","routeno":"김포골드라인","location": {"lon":"126.627981065827","lat":"37.6452553945244"}}
{"index": {"_id":"20947"}}
{"id":"20947","stationno":"G102","name":"마산역","routeno":"김포골드라인","location": {"lon":"126.643737875864","lat":"37.640613168476"}}
{"index": {"_id":"20948"}}
{"id":"20948","stationno":"G103","name":"장기역","routeno":"김포골드라인","location": {"lon":"126.669052675","lat":"37.644065302097"}}
{"index": {"_id":"20949"}}
{"id":"20949","stationno":"G104","name":"운양역","routeno":"김포골드라인","location": {"lon":"126.68385988844","lat":"37.6537956778485"}}
{"index": {"_id":"20950"}}
{"id":"20950","stationno":"G105","name":"걸포북변역","routeno":"김포골드라인","location": {"lon":"126.705788039036","lat":"37.6316467321152"}}
{"index": {"_id":"20951"}}
{"id":"20951","stationno":"G106","name":"사우역","routeno":"김포골드라인","location": {"lon":"126.719808225784","lat":"37.6203135033656"}}
{"index": {"_id":"20952"}}
{"id":"20952","stationno":"G107","name":"풍무역","routeno":"김포골드라인","location": {"lon":"126.732415765284","lat":"37.6124453553725"}}
{"index": {"_id":"20953"}}
{"id":"20953","stationno":"G108","name":"고촌역","routeno":"김포골드라인","location": {"lon":"126.770297445655","lat":"37.6013491365863"}}
{"index": {"_id":"20954"}}
{"id":"20954","stationno":"G109","name":"김포공항역","routeno":"김포골드라인","location": {"lon":"126.801278424065","lat":"37.562313207852"}}
{"index": {"_id":"20955"}}
{"id":"20955","stationno":"0408","name":"별내별가람역","routeno":"진접선","location": {"lon":"127.11604506255","lat":"37.6678114479229"}}
{"index": {"_id":"20956"}}
{"id":"20956","stationno":"0406","name":"오남역","routeno":"진접선","location": {"lon":"127.19110731941","lat":"37.70522361112"}}
{"index": {"_id":"20957"}}
{"id":"20957","stationno":"0405","name":"진접역","routeno":"진접선","location": {"lon":"127.203253816017","lat":"37.7196084023819"}}
{"index": {"_id":"20958"}}
{"id":"20958","stationno":"0124","name":"청량리역","routeno":"1호선","location": {"lon":"127.045085886324","lat":"37.5802331563072"}}
{"index": {"_id":"20959"}}
{"id":"20959","stationno":"0125","name":"제기동역","routeno":"1호선","location": {"lon":"127.034690599752","lat":"37.5781967284885"}}
{"index": {"_id":"20960"}}
{"id":"20960","stationno":"0126","name":"신설동역","routeno":"1호선","location": {"lon":"127.025093714935","lat":"37.5747187974165"}}
{"index": {"_id":"20961"}}
{"id":"20961","stationno":"0127","name":"동묘앞역","routeno":"1호선","location": {"lon":"127.01675118037","lat":"37.5733722075697"}}
{"index": {"_id":"20962"}}
{"id":"20962","stationno":"0128","name":"동대문역","routeno":"1호선","location": {"lon":"127.011167102297","lat":"37.5717775660734"}}
{"index": {"_id":"20963"}}
{"id":"20963","stationno":"0129","name":"종로5가역","routeno":"1호선","location": {"lon":"127.001916647342","lat":"37.5709075371016"}}
{"index": {"_id":"20964"}}
{"id":"20964","stationno":"0130","name":"종로3가역","routeno":"1호선","location": {"lon":"126.99202930223","lat":"37.5704266025836"}}
{"index": {"_id":"20965"}}
{"id":"20965","stationno":"0131","name":"종각역","routeno":"1호선","location": {"lon":"126.983239678933","lat":"37.5702140381269"}}
{"index": {"_id":"20966"}}
{"id":"20966","stationno":"0132","name":"시청역","routeno":"1호선","location": {"lon":"126.976983237511","lat":"37.5654385176408"}}
{"index": {"_id":"20967"}}
{"id":"20967","stationno":"0133","name":"서울역","routeno":"1호선","location": {"lon":"126.972554606456","lat":"37.5571594835988"}}
{"index": {"_id":"20968"}}
{"id":"20968","stationno":"0201","name":"시청역","routeno":"2호선","location": {"lon":"126.975389363157","lat":"37.5635793508101"}}
{"index": {"_id":"20969"}}
{"id":"20969","stationno":"0202","name":"을지로입구역","routeno":"2호선","location": {"lon":"126.982372901787","lat":"37.5660509513873"}}
{"index": {"_id":"20970"}}
{"id":"20970","stationno":"0203","name":"을지로3가역","routeno":"2호선","location": {"lon":"126.990308356253","lat":"37.56626594615"}}
{"index": {"_id":"20971"}}
{"id":"20971","stationno":"0204","name":"을지로4가역","routeno":"2호선","location": {"lon":"126.997852780281","lat":"37.5666369941572"}}
{"index": {"_id":"20972"}}
{"id":"20972","stationno":"0205","name":"동대문역사문화공원역","routeno":"2호선","location": {"lon":"127.009131498424","lat":"37.5655895229776"}}
{"index": {"_id":"20973"}}
{"id":"20973","stationno":"0206","name":"신당역","routeno":"2호선","location": {"lon":"127.019540574485","lat":"37.5656540317328"}}
{"index": {"_id":"20974"}}
{"id":"20974","stationno":"0207","name":"상왕십리역","routeno":"2호선","location": {"lon":"127.029031221392","lat":"37.5644687111181"}}
{"index": {"_id":"20975"}}
{"id":"20975","stationno":"0208","name":"왕십리역","routeno":"2호선","location": {"lon":"127.036655378283","lat":"37.5612217415191"}}
{"index": {"_id":"20976"}}
{"id":"20976","stationno":"0209","name":"한양대역","routeno":"2호선","location": {"lon":"127.043584493543","lat":"37.55557788354"}}
{"index": {"_id":"20977"}}
{"id":"20977","stationno":"0210","name":"뚝섬역","routeno":"2호선","location": {"lon":"127.047365178682","lat":"37.5471882244091"}}
{"index": {"_id":"20978"}}
{"id":"20978","stationno":"0211","name":"성수역","routeno":"2호선","location": {"lon":"127.056090471223","lat":"37.5445023983984"}}
{"index": {"_id":"20979"}}
{"id":"20979","stationno":"0212","name":"건대입구역","routeno":"2호선","location": {"lon":"127.069173281554","lat":"37.5404188872176"}}
{"index": {"_id":"20980"}}
{"id":"20980","stationno":"0213","name":"구의역","routeno":"2호선","location": {"lon":"127.086179228767","lat":"37.5371535596228"}}
{"index": {"_id":"20981"}}
{"id":"20981","stationno":"0214","name":"강변역","routeno":"2호선","location": {"lon":"127.094664569096","lat":"37.5351692767888"}}
{"index": {"_id":"20982"}}
{"id":"20982","stationno":"0215","name":"잠실나루역","routeno":"2호선","location": {"lon":"127.103811089444","lat":"37.5206867318088"}}
{"index": {"_id":"20983"}}
{"id":"20983","stationno":"0216","name":"잠실역","routeno":"2호선","location": {"lon":"127.101857941447","lat":"37.513859279255"}}
{"index": {"_id":"20984"}}
{"id":"20984","stationno":"0217","name":"잠실새내역","routeno":"2호선","location": {"lon":"127.086373867207","lat":"37.5115672093323"}}
{"index": {"_id":"20985"}}
{"id":"20985","stationno":"0218","name":"종합운동장역","routeno":"2호선","location": {"lon":"127.073356018706","lat":"37.5109692748993"}}
{"index": {"_id":"20986"}}
{"id":"20986","stationno":"0219","name":"삼성역","routeno":"2호선","location": {"lon":"127.063073009788","lat":"37.5088619974404"}}
{"index": {"_id":"20987"}}
{"id":"20987","stationno":"0220","name":"선릉역","routeno":"2호선","location": {"lon":"127.048942471228","lat":"37.5045028775835"}}
{"index": {"_id":"20988"}}
{"id":"20988","stationno":"0221","name":"역삼역","routeno":"2호선","location": {"lon":"127.036618203089","lat":"37.5007162693593"}}
{"index": {"_id":"20989"}}
{"id":"20989","stationno":"0222","name":"강남역","routeno":"2호선","location": {"lon":"127.028307900881","lat":"37.4981646510326"}}
{"index": {"_id":"20990"}}
{"id":"20990","stationno":"0223","name":"교대역","routeno":"2호선","location": {"lon":"127.013838469407","lat":"37.4928178646055"}}
{"index": {"_id":"20991"}}
{"id":"20991","stationno":"0224","name":"서초역","routeno":"2호선","location": {"lon":"127.007580814715","lat":"37.4918229990093"}}
{"index": {"_id":"20992"}}
{"id":"20992","stationno":"0225","name":"방배역","routeno":"2호선","location": {"lon":"126.997694899327","lat":"37.4814364876589"}}
{"index": {"_id":"20993"}}
{"id":"20993","stationno":"0226","name":"사당역","routeno":"2호선","location": {"lon":"126.981408909449","lat":"37.4765228347619"}}
{"index": {"_id":"20994"}}
{"id":"20994","stationno":"0227","name":"낙성대역","routeno":"2호선","location": {"lon":"126.963409959152","lat":"37.4770651843603"}}
{"index": {"_id":"20995"}}
{"id":"20995","stationno":"0228","name":"서울대입구역","routeno":"2호선","location": {"lon":"126.952645104944","lat":"37.4811526631844"}}
{"index": {"_id":"20996"}}
{"id":"20996","stationno":"0229","name":"봉천역","routeno":"2호선","location": {"lon":"126.941495272047","lat":"37.4825562153548"}}
{"index": {"_id":"20997"}}
{"id":"20997","stationno":"0230","name":"신림역","routeno":"2호선","location": {"lon":"126.92980331103","lat":"37.4842176141092"}}
{"index": {"_id":"20998"}}
{"id":"20998","stationno":"0231","name":"신대방역","routeno":"2호선","location": {"lon":"126.913175585996","lat":"37.4875759745635"}}
{"index": {"_id":"20999"}}
{"id":"20999","stationno":"0232","name":"구로디지털단지역","routeno":"2호선","location": {"lon":"126.901494378412","lat":"37.4853149237865"}}
{"index": {"_id":"21000"}}
{"id":"21000","stationno":"0233","name":"대림역","routeno":"2호선","location": {"lon":"126.8949461878","lat":"37.4933105886136"}}
{"index": {"_id":"21001"}}
{"id":"21001","stationno":"0234","name":"신도림역","routeno":"2호선","location": {"lon":"126.891080501385","lat":"37.5087701449787"}}
{"index": {"_id":"21002"}}
{"id":"21002","stationno":"0235","name":"문래역","routeno":"2호선","location": {"lon":"126.894763060556","lat":"37.5179214637526"}}
{"index": {"_id":"21003"}}
{"id":"21003","stationno":"0236","name":"영등포구청역","routeno":"2호선","location": {"lon":"126.896626898379","lat":"37.5256996614804"}}
{"index": {"_id":"21004"}}
{"id":"21004","stationno":"0237","name":"당산역","routeno":"2호선","location": {"lon":"126.90273071003","lat":"37.534956866618"}}
{"index": {"_id":"21005"}}
{"id":"21005","stationno":"0238","name":"합정역","routeno":"2호선","location": {"lon":"126.914638180431","lat":"37.5501152068908"}}
{"index": {"_id":"21006"}}
{"id":"21006","stationno":"0239","name":"홍대입구역","routeno":"2호선","location": {"lon":"126.923674307594","lat":"37.5568904093718"}}
{"index": {"_id":"21007"}}
{"id":"21007","stationno":"0240","name":"신촌역","routeno":"2호선","location": {"lon":"126.936119192554","lat":"37.5554417865984"}}
{"index": {"_id":"21008"}}
{"id":"21008","stationno":"0241","name":"이대역","routeno":"2호선","location": {"lon":"126.945758201019","lat":"37.5567980142044"}}
{"index": {"_id":"21009"}}
{"id":"21009","stationno":"0242","name":"아현역","routeno":"2호선","location": {"lon":"126.95603374504","lat":"37.5573575723061"}}
{"index": {"_id":"21010"}}
{"id":"21010","stationno":"0243","name":"충정로역","routeno":"2호선","location": {"lon":"126.964474043785","lat":"37.5598377952439"}}
{"index": {"_id":"21011"}}
{"id":"21011","stationno":"2111","name":"용답역","routeno":"2호선","location": {"lon":"127.050729309179","lat":"37.5620049052662"}}
{"index": {"_id":"21012"}}
{"id":"21012","stationno":"2112","name":"신답역","routeno":"2호선","location": {"lon":"127.046820203556","lat":"37.5699910562183"}}
{"index": {"_id":"21013"}}
{"id":"21013","stationno":"2113","name":"용두역","routeno":"2호선","location": {"lon":"127.038031119837","lat":"37.5739380503267"}}
{"index": {"_id":"21014"}}
{"id":"21014","stationno":"2114","name":"신설동역","routeno":"2호선","location": {"lon":"127.025093714935","lat":"37.5747187974165"}}
{"index": {"_id":"21015"}}
{"id":"21015","stationno":"2341","name":"도림천역","routeno":"2호선","location": {"lon":"126.882702584468","lat":"37.5144420510515"}}
{"index": {"_id":"21016"}}
{"id":"21016","stationno":"2342","name":"양천구청역","routeno":"2호선","location": {"lon":"126.866065211751","lat":"37.5126989358446"}}
{"index": {"_id":"21017"}}
{"id":"21017","stationno":"2343","name":"신정네거리역","routeno":"2호선","location": {"lon":"126.852991645059","lat":"37.5197975266787"}}
{"index": {"_id":"21018"}}
{"id":"21018","stationno":"0319","name":"지축역","routeno":"3호선","location": {"lon":"126.912167788573","lat":"37.6496180734177"}}
{"index": {"_id":"21019"}}
{"id":"21019","stationno":"0320","name":"구파발역","routeno":"3호선","location": {"lon":"126.918745426412","lat":"37.6368417889316"}}
{"index": {"_id":"21020"}}
{"id":"21020","stationno":"0321","name":"연신내역","routeno":"3호선","location": {"lon":"126.921162124977","lat":"37.618962003178"}}
{"index": {"_id":"21021"}}
{"id":"21021","stationno":"0322","name":"불광역","routeno":"3호선","location": {"lon":"126.92998576213","lat":"37.6102072578868"}}
{"index": {"_id":"21022"}}
{"id":"21022","stationno":"0323","name":"녹번역","routeno":"3호선","location": {"lon":"126.936019442532","lat":"37.6007421809861"}}
{"index": {"_id":"21023"}}
{"id":"21023","stationno":"0324","name":"홍제역","routeno":"3호선","location": {"lon":"126.944242309924","lat":"37.5887103667691"}}
{"index": {"_id":"21024"}}
{"id":"21024","stationno":"0325","name":"무악재역","routeno":"3호선","location": {"lon":"126.950322097494","lat":"37.5823841472467"}}
{"index": {"_id":"21025"}}
{"id":"21025","stationno":"0326","name":"독립문역","routeno":"3호선","location": {"lon":"126.957750279047","lat":"37.5744103589329"}}
{"index": {"_id":"21026"}}
{"id":"21026","stationno":"0327","name":"경복궁역","routeno":"3호선","location": {"lon":"126.973062710191","lat":"37.5758613027702"}}
{"index": {"_id":"21027"}}
{"id":"21027","stationno":"0328","name":"안국역","routeno":"3호선","location": {"lon":"126.985823042976","lat":"37.5767203705556"}}
{"index": {"_id":"21028"}}
{"id":"21028","stationno":"0329","name":"종로3가역","routeno":"3호선","location": {"lon":"126.991994361467","lat":"37.5711402785938"}}
{"index": {"_id":"21029"}}
{"id":"21029","stationno":"0330","name":"을지로3가역","routeno":"3호선","location": {"lon":"126.992650024369","lat":"37.5662750350156"}}
{"index": {"_id":"21030"}}
{"id":"21030","stationno":"0331","name":"충무로역","routeno":"3호선","location": {"lon":"126.994207448462","lat":"37.5612890978954"}}
{"index": {"_id":"21031"}}
{"id":"21031","stationno":"0332","name":"동대입구역","routeno":"3호선","location": {"lon":"127.005460196954","lat":"37.559030224347"}}
{"index": {"_id":"21032"}}
{"id":"21032","stationno":"0333","name":"약수역","routeno":"3호선","location": {"lon":"127.010822526737","lat":"37.5545595558163"}}
{"index": {"_id":"21033"}}
{"id":"21033","stationno":"0334","name":"금호역","routeno":"3호선","location": {"lon":"127.015893753726","lat":"37.5481125196986"}}
{"index": {"_id":"21034"}}
{"id":"21034","stationno":"0335","name":"옥수역","routeno":"3호선","location": {"lon":"127.018965435917","lat":"37.5409877747326"}}
{"index": {"_id":"21035"}}
{"id":"21035","stationno":"0336","name":"압구정역","routeno":"3호선","location": {"lon":"127.028480919224","lat":"37.5264308236177"}}
{"index": {"_id":"21036"}}
{"id":"21036","stationno":"0337","name":"신사역","routeno":"3호선","location": {"lon":"127.020326886309","lat":"37.5164324582415"}}
{"index": {"_id":"21037"}}
{"id":"21037","stationno":"0338","name":"잠원역","routeno":"3호선","location": {"lon":"127.01122017966","lat":"37.5127991148107"}}
{"index": {"_id":"21038"}}
{"id":"21038","stationno":"0339","name":"고속터미널역","routeno":"3호선","location": {"lon":"127.004949918697","lat":"37.5049267445237"}}
{"index": {"_id":"21039"}}
{"id":"21039","stationno":"0340","name":"교대역","routeno":"3호선","location": {"lon":"127.013838469407","lat":"37.4928178646055"}}
{"index": {"_id":"21040"}}
{"id":"21040","stationno":"0341","name":"남부터미널역","routeno":"3호선","location": {"lon":"127.016207055102","lat":"37.48514016604"}}
{"index": {"_id":"21041"}}
{"id":"21041","stationno":"0342","name":"양재역","routeno":"3호선","location": {"lon":"127.034544193436","lat":"37.4839347328908"}}
{"index": {"_id":"21042"}}
{"id":"21042","stationno":"0343","name":"매봉역","routeno":"3호선","location": {"lon":"127.046614560925","lat":"37.4869611285839"}}
{"index": {"_id":"21043"}}
{"id":"21043","stationno":"0344","name":"도곡역","routeno":"3호선","location": {"lon":"127.05532337372","lat":"37.4908647717187"}}
{"index": {"_id":"21044"}}
{"id":"21044","stationno":"0345","name":"대치역","routeno":"3호선","location": {"lon":"127.063430193449","lat":"37.4945627553067"}}
{"index": {"_id":"21045"}}
{"id":"21045","stationno":"0346","name":"학여울역","routeno":"3호선","location": {"lon":"127.071718971861","lat":"37.4967171864138"}}
{"index": {"_id":"21046"}}
{"id":"21046","stationno":"0347","name":"대청역","routeno":"3호선","location": {"lon":"127.079493645766","lat":"37.4937218597788"}}
{"index": {"_id":"21047"}}
{"id":"21047","stationno":"0348","name":"일원역","routeno":"3호선","location": {"lon":"127.084451750048","lat":"37.4840735840284"}}
{"index": {"_id":"21048"}}
{"id":"21048","stationno":"0349","name":"수서역","routeno":"3호선","location": {"lon":"127.101859191018","lat":"37.4873889933503"}}
{"index": {"_id":"21049"}}
{"id":"21049","stationno":"0350","name":"가락시장역","routeno":"3호선","location": {"lon":"127.118485741487","lat":"37.4927440321316"}}
{"index": {"_id":"21050"}}
{"id":"21050","stationno":"0351","name":"경찰병원역","routeno":"3호선","location": {"lon":"127.124067847413","lat":"37.4956031419934"}}
{"index": {"_id":"21051"}}
{"id":"21051","stationno":"0352","name":"오금역","routeno":"3호선","location": {"lon":"127.127879247544","lat":"37.5022659793733"}}
{"index": {"_id":"21052"}}
{"id":"21052","stationno":"0409","name":"당고개역","routeno":"4호선","location": {"lon":"127.079011159467","lat":"37.6702926448965"}}
{"index": {"_id":"21053"}}
{"id":"21053","stationno":"0410","name":"상계역","routeno":"4호선","location": {"lon":"127.073575379339","lat":"37.6609038887184"}}
{"index": {"_id":"21054"}}
{"id":"21054","stationno":"0411","name":"노원역","routeno":"4호선","location": {"lon":"127.063030448739","lat":"37.6562677764281"}}
{"index": {"_id":"21055"}}
{"id":"21055","stationno":"0412","name":"창동역","routeno":"4호선","location": {"lon":"127.04768378525","lat":"37.6532084846758"}}
{"index": {"_id":"21056"}}
{"id":"21056","stationno":"0413","name":"쌍문역","routeno":"4호선","location": {"lon":"127.034880717215","lat":"37.6488498649136"}}
{"index": {"_id":"21057"}}
{"id":"21057","stationno":"0414","name":"수유역","routeno":"4호선","location": {"lon":"127.025356901379","lat":"37.6377452337445"}}
{"index": {"_id":"21058"}}
{"id":"21058","stationno":"0415","name":"미아역","routeno":"4호선","location": {"lon":"127.026103434413","lat":"37.6264436445109"}}
{"index": {"_id":"21059"}}
{"id":"21059","stationno":"0416","name":"미아사거리역","routeno":"4호선","location": {"lon":"127.030098418544","lat":"37.6132861094991"}}
{"index": {"_id":"21060"}}
{"id":"21060","stationno":"0417","name":"길음역","routeno":"4호선","location": {"lon":"127.024823216768","lat":"37.603183910563"}}
{"index": {"_id":"21061"}}
{"id":"21061","stationno":"0418","name":"성신여대입구역","routeno":"4호선","location": {"lon":"127.016477649743","lat":"37.5927179261346"}}
{"index": {"_id":"21062"}}
{"id":"21062","stationno":"0419","name":"한성대입구역","routeno":"4호선","location": {"lon":"127.00595033342","lat":"37.5883948842004"}}
{"index": {"_id":"21063"}}
{"id":"21063","stationno":"0420","name":"혜화역","routeno":"4호선","location": {"lon":"127.001978401429","lat":"37.5818036223189"}}
{"index": {"_id":"21064"}}
{"id":"21064","stationno":"0421","name":"동대문역","routeno":"4호선","location": {"lon":"127.009546610861","lat":"37.5704117093421"}}
{"index": {"_id":"21065"}}
{"id":"21065","stationno":"0422","name":"동대문역사문화공원역","routeno":"4호선","location": {"lon":"127.007550653481","lat":"37.5650787698586"}}
{"index": {"_id":"21066"}}
{"id":"21066","stationno":"0423","name":"충무로역","routeno":"4호선","location": {"lon":"126.994207448462","lat":"37.5612890978954"}}
{"index": {"_id":"21067"}}
{"id":"21067","stationno":"0424","name":"명동역","routeno":"4호선","location": {"lon":"126.985947030389","lat":"37.5609100751113"}}
{"index": {"_id":"21068"}}
{"id":"21068","stationno":"0425","name":"회현역","routeno":"4호선","location": {"lon":"126.978239147279","lat":"37.5585353196435"}}
{"index": {"_id":"21069"}}
{"id":"21069","stationno":"0426","name":"서울역","routeno":"4호선","location": {"lon":"126.972805485095","lat":"37.5532000173323"}}
{"index": {"_id":"21070"}}
{"id":"21070","stationno":"0427","name":"숙대입구역","routeno":"4호선","location": {"lon":"126.971872351838","lat":"37.5451939759064"}}
{"index": {"_id":"21071"}}
{"id":"21071","stationno":"0428","name":"삼각지역","routeno":"4호선","location": {"lon":"126.973011032988","lat":"37.5345937063675"}}
{"index": {"_id":"21072"}}
{"id":"21072","stationno":"0429","name":"신용산역","routeno":"4호선","location": {"lon":"126.968215931799","lat":"37.5296155628471"}}
{"index": {"_id":"21073"}}
{"id":"21073","stationno":"0430","name":"이촌역","routeno":"4호선","location": {"lon":"126.973683151228","lat":"37.522520254623"}}
{"index": {"_id":"21074"}}
{"id":"21074","stationno":"0431","name":"동작역","routeno":"4호선","location": {"lon":"126.980268385443","lat":"37.5028703671011"}}
{"index": {"_id":"21075"}}
{"id":"21075","stationno":"0432","name":"총신대입구역","routeno":"4호선","location": {"lon":"126.982199707405","lat":"37.4875538278198"}}
{"index": {"_id":"21076"}}
{"id":"21076","stationno":"0433","name":"사당역","routeno":"4호선","location": {"lon":"126.981595139341","lat":"37.4768632653727"}}
{"index": {"_id":"21077"}}
{"id":"21077","stationno":"0434","name":"남태령역","routeno":"4호선","location": {"lon":"126.988656544337","lat":"37.4648575576518"}}
{"index": {"_id":"21078"}}
{"id":"21078","stationno":"0510","name":"방화역","routeno":"5호선","location": {"lon":"126.81262993382","lat":"37.5770031079469"}}
{"index": {"_id":"21079"}}
{"id":"21079","stationno":"0511","name":"개화산역","routeno":"5호선","location": {"lon":"126.806001672732","lat":"37.572270024754"}}
{"index": {"_id":"21080"}}
{"id":"21080","stationno":"0512","name":"김포공항역","routeno":"5호선","location": {"lon":"126.801278424065","lat":"37.562313207852"}}
{"index": {"_id":"21081"}}
{"id":"21081","stationno":"0513","name":"송정역","routeno":"5호선","location": {"lon":"126.811055407613","lat":"37.5614775483136"}}
{"index": {"_id":"21082"}}
{"id":"21082","stationno":"0514","name":"마곡역","routeno":"5호선","location": {"lon":"126.825547992125","lat":"37.5601984535897"}}
{"index": {"_id":"21083"}}
{"id":"21083","stationno":"0515","name":"발산역","routeno":"5호선","location": {"lon":"126.837310771961","lat":"37.5590292668195"}}
{"index": {"_id":"21084"}}
{"id":"21084","stationno":"0516","name":"우장산역","routeno":"5호선","location": {"lon":"126.836408931785","lat":"37.5490001953873"}}
{"index": {"_id":"21085"}}
{"id":"21085","stationno":"0517","name":"화곡역","routeno":"5호선","location": {"lon":"126.840496450153","lat":"37.5414336176977"}}
{"index": {"_id":"21086"}}
{"id":"21086","stationno":"0518","name":"까치산역","routeno":"5호선","location": {"lon":"126.846611592059","lat":"37.5319560847746"}}
{"index": {"_id":"21087"}}
{"id":"21087","stationno":"0519","name":"신정역","routeno":"5호선","location": {"lon":"126.857290392028","lat":"37.5252107928783"}}
{"index": {"_id":"21088"}}
{"id":"21088","stationno":"0520","name":"목동역","routeno":"5호선","location": {"lon":"126.864742584692","lat":"37.52619868083"}}
{"index": {"_id":"21089"}}
{"id":"21089","stationno":"0521","name":"오목교역","routeno":"5호선","location": {"lon":"126.875354626254","lat":"37.5244500703802"}}
{"index": {"_id":"21090"}}
{"id":"21090","stationno":"0522","name":"양평역","routeno":"5호선","location": {"lon":"126.886865676125","lat":"37.5255116853806"}}
{"index": {"_id":"21091"}}
{"id":"21091","stationno":"0523","name":"영등포구청역","routeno":"5호선","location": {"lon":"126.895289064995","lat":"37.5242266062117"}}
{"index": {"_id":"21092"}}
{"id":"21092","stationno":"0524","name":"영등포시장역","routeno":"5호선","location": {"lon":"126.904959169819","lat":"37.5227345248969"}}
{"index": {"_id":"21093"}}
{"id":"21093","stationno":"0525","name":"신길역","routeno":"5호선","location": {"lon":"126.914336937521","lat":"37.5176677017212"}}
{"index": {"_id":"21094"}}
{"id":"21094","stationno":"0526","name":"여의도역","routeno":"5호선","location": {"lon":"126.924484687694","lat":"37.5218423045786"}}
{"index": {"_id":"21095"}}
{"id":"21095","stationno":"0527","name":"여의나루역","routeno":"5호선","location": {"lon":"126.932863954929","lat":"37.5270851610199"}}
{"index": {"_id":"21096"}}
{"id":"21096","stationno":"0528","name":"마포역","routeno":"5호선","location": {"lon":"126.945920370023","lat":"37.5395837885645"}}
{"index": {"_id":"21097"}}
{"id":"21097","stationno":"0529","name":"공덕역","routeno":"5호선","location": {"lon":"126.951363830233","lat":"37.5445267873155"}}
{"index": {"_id":"21098"}}
{"id":"21098","stationno":"0530","name":"애오개역","routeno":"5호선","location": {"lon":"126.95661326016","lat":"37.5533624029594"}}
{"index": {"_id":"21099"}}
{"id":"21099","stationno":"0531","name":"충정로역","routeno":"5호선","location": {"lon":"126.963373255365","lat":"37.5609934378336"}}
{"index": {"_id":"21100"}}
{"id":"21100","stationno":"0532","name":"서대문역","routeno":"5호선","location": {"lon":"126.966637398787","lat":"37.565856271913"}}
{"index": {"_id":"21101"}}
{"id":"21101","stationno":"0533","name":"광화문역","routeno":"5호선","location": {"lon":"126.976787992565","lat":"37.5716228232824"}}
{"index": {"_id":"21102"}}
{"id":"21102","stationno":"0534","name":"종로3가역","routeno":"5호선","location": {"lon":"126.99006167065","lat":"37.5725695604894"}}
{"index": {"_id":"21103"}}
{"id":"21103","stationno":"0535","name":"을지로4가역","routeno":"5호선","location": {"lon":"126.998059555897","lat":"37.5675250192617"}}
{"index": {"_id":"21104"}}
{"id":"21104","stationno":"0536","name":"동대문역사문화공원역","routeno":"5호선","location": {"lon":"127.005916180124","lat":"37.5645770081888"}}
{"index": {"_id":"21105"}}
{"id":"21105","stationno":"0537","name":"청구역","routeno":"5호선","location": {"lon":"127.013806006802","lat":"37.5602939125022"}}
{"index": {"_id":"21106"}}
{"id":"21106","stationno":"0538","name":"신금호역","routeno":"5호선","location": {"lon":"127.020064146247","lat":"37.5545324884294"}}
{"index": {"_id":"21107"}}
{"id":"21107","stationno":"0539","name":"행당역","routeno":"5호선","location": {"lon":"127.029232035475","lat":"37.5572784369263"}}
{"index": {"_id":"21108"}}
{"id":"21108","stationno":"0540","name":"왕십리역","routeno":"5호선","location": {"lon":"127.036655378283","lat":"37.5612217415191"}}
{"index": {"_id":"21109"}}
{"id":"21109","stationno":"0541","name":"마장역","routeno":"5호선","location": {"lon":"127.043163438528","lat":"37.5662827804848"}}
{"index": {"_id":"21110"}}
{"id":"21110","stationno":"0542","name":"답십리역","routeno":"5호선","location": {"lon":"127.05318095956","lat":"37.5664458277827"}}
{"index": {"_id":"21111"}}
{"id":"21111","stationno":"0543","name":"장한평역","routeno":"5호선","location": {"lon":"127.064421108758","lat":"37.5615026802954"}}
{"index": {"_id":"21112"}}
{"id":"21112","stationno":"0544","name":"군자역","routeno":"5호선","location": {"lon":"127.079017279019","lat":"37.5573631939521"}}
{"index": {"_id":"21113"}}
{"id":"21113","stationno":"0545","name":"아차산역","routeno":"5호선","location": {"lon":"127.08937059931","lat":"37.5524011361136"}}
{"index": {"_id":"21114"}}
{"id":"21114","stationno":"0546","name":"광나루역","routeno":"5호선","location": {"lon":"127.103686533578","lat":"37.5452786641598"}}
{"index": {"_id":"21115"}}
{"id":"21115","stationno":"0547","name":"천호역","routeno":"5호선","location": {"lon":"127.123742434482","lat":"37.5385789820645"}}
{"index": {"_id":"21116"}}
{"id":"21116","stationno":"0548","name":"강동역","routeno":"5호선","location": {"lon":"127.133529582127","lat":"37.5355205088294"}}
{"index": {"_id":"21117"}}
{"id":"21117","stationno":"0549","name":"길동역","routeno":"5호선","location": {"lon":"127.13999920444","lat":"37.5378115570072"}}
{"index": {"_id":"21118"}}
{"id":"21118","stationno":"0550","name":"굽은다리역","routeno":"5호선","location": {"lon":"127.142970847846","lat":"37.5457314720664"}}
{"index": {"_id":"21119"}}
{"id":"21119","stationno":"0551","name":"명일역","routeno":"5호선","location": {"lon":"127.144000929119","lat":"37.5512602756216"}}
{"index": {"_id":"21120"}}
{"id":"21120","stationno":"0552","name":"고덕역","routeno":"5호선","location": {"lon":"127.15394941502","lat":"37.5550473189056"}}
{"index": {"_id":"21121"}}
{"id":"21121","stationno":"0553","name":"상일동역","routeno":"5호선","location": {"lon":"127.165829221931","lat":"37.5566643781876"}}
{"index": {"_id":"21122"}}
{"id":"21122","stationno":"P549","name":"둔촌동역","routeno":"5호선","location": {"lon":"127.136190298465","lat":"37.5276413733277"}}
{"index": {"_id":"21123"}}
{"id":"21123","stationno":"P550","name":"올림픽공원역","routeno":"5호선","location": {"lon":"127.130600140827","lat":"37.5160876492782"}}
{"index": {"_id":"21124"}}
{"id":"21124","stationno":"P551","name":"방이역","routeno":"5호선","location": {"lon":"127.125854699016","lat":"37.5085564458698"}}
{"index": {"_id":"21125"}}
{"id":"21125","stationno":"P552","name":"오금역","routeno":"5호선","location": {"lon":"127.127879247544","lat":"37.5022659793733"}}
{"index": {"_id":"21126"}}
{"id":"21126","stationno":"P553","name":"개롱역","routeno":"5호선","location": {"lon":"127.135158595127","lat":"37.4978146566399"}}
{"index": {"_id":"21127"}}
{"id":"21127","stationno":"P554","name":"거여역","routeno":"5호선","location": {"lon":"127.144032331306","lat":"37.4932073280335"}}
{"index": {"_id":"21128"}}
{"id":"21128","stationno":"0554","name":"강일역","routeno":"5호선","location": {"lon":"127.175938009116","lat":"37.5575265973614"}}
{"index": {"_id":"21129"}}
{"id":"21129","stationno":"0555","name":"미사역","routeno":"5호선","location": {"lon":"127.19269715129","lat":"37.5631031857702"}}
{"index": {"_id":"21130"}}
{"id":"21130","stationno":"0556","name":"하남풍산역","routeno":"5호선","location": {"lon":"127.203870649661","lat":"37.5520576727898"}}
{"index": {"_id":"21131"}}
{"id":"21131","stationno":"0557","name":"하남시청역","routeno":"5호선","location": {"lon":"127.206464400472","lat":"37.5419015378666"}}
{"index": {"_id":"21132"}}
{"id":"21132","stationno":"0558","name":"하남검단산역","routeno":"5호선","location": {"lon":"127.22344448627","lat":"37.5397591397808"}}
{"index": {"_id":"21133"}}
{"id":"21133","stationno":"P555","name":"마천역","routeno":"5호선","location": {"lon":"127.152320621872","lat":"37.4946706182588"}}
{"index": {"_id":"21134"}}
{"id":"21134","stationno":"0610","name":"응암역","routeno":"6호선","location": {"lon":"126.915512801302","lat":"37.5987423282207"}}
{"index": {"_id":"21135"}}
{"id":"21135","stationno":"0611","name":"역촌역","routeno":"6호선","location": {"lon":"126.922967946327","lat":"37.6060390534435"}}
{"index": {"_id":"21136"}}
{"id":"21136","stationno":"0612","name":"불광역","routeno":"6호선","location": {"lon":"126.92998576213","lat":"37.6102072578868"}}
{"index": {"_id":"21137"}}
{"id":"21137","stationno":"0613","name":"독바위역","routeno":"6호선","location": {"lon":"126.932810138476","lat":"37.6183988849915"}}
{"index": {"_id":"21138"}}
{"id":"21138","stationno":"0614","name":"연신내역","routeno":"6호선","location": {"lon":"126.921162124977","lat":"37.618962003178"}}
{"index": {"_id":"21139"}}
{"id":"21139","stationno":"0615","name":"구산역","routeno":"6호선","location": {"lon":"126.917182386796","lat":"37.6112122196295"}}
{"index": {"_id":"21140"}}
{"id":"21140","stationno":"0616","name":"새절역","routeno":"6호선","location": {"lon":"126.913911983591","lat":"37.5918270544017"}}
{"index": {"_id":"21141"}}
{"id":"21141","stationno":"0617","name":"증산역","routeno":"6호선","location": {"lon":"126.910057587886","lat":"37.5841954778004"}}
{"index": {"_id":"21142"}}
{"id":"21142","stationno":"0618","name":"디지털미디어시티역","routeno":"6호선","location": {"lon":"126.901928562926","lat":"37.5771614352661"}}
{"index": {"_id":"21143"}}
{"id":"21143","stationno":"0619","name":"월드컵경기장역","routeno":"6호선","location": {"lon":"126.899033325814","lat":"37.569942569034"}}
{"index": {"_id":"21144"}}
{"id":"21144","stationno":"0620","name":"마포구청역","routeno":"6호선","location": {"lon":"126.903356973848","lat":"37.5634263131969"}}
{"index": {"_id":"21145"}}
{"id":"21145","stationno":"0621","name":"망원역","routeno":"6호선","location": {"lon":"126.910033925408","lat":"37.5560572923314"}}
{"index": {"_id":"21146"}}
{"id":"21146","stationno":"0622","name":"합정역","routeno":"6호선","location": {"lon":"126.913190884167","lat":"37.5492591944858"}}
{"index": {"_id":"21147"}}
{"id":"21147","stationno":"0623","name":"상수역","routeno":"6호선","location": {"lon":"126.922409857908","lat":"37.5477716665856"}}
{"index": {"_id":"21148"}}
{"id":"21148","stationno":"0624","name":"광흥창역","routeno":"6호선","location": {"lon":"126.931939240491","lat":"37.5474860706906"}}
{"index": {"_id":"21149"}}
{"id":"21149","stationno":"0625","name":"대흥역","routeno":"6호선","location": {"lon":"126.942465251709","lat":"37.5476683544726"}}
{"index": {"_id":"21150"}}
{"id":"21150","stationno":"0626","name":"공덕역","routeno":"6호선","location": {"lon":"126.951947569181","lat":"37.543526917067"}}
{"index": {"_id":"21151"}}
{"id":"21151","stationno":"0627","name":"효창공원앞역","routeno":"6호선","location": {"lon":"126.961258439813","lat":"37.5393766399926"}}
{"index": {"_id":"21152"}}
{"id":"21152","stationno":"0628","name":"삼각지역","routeno":"6호선","location": {"lon":"126.974080538316","lat":"37.5356450533976"}}
{"index": {"_id":"21153"}}
{"id":"21153","stationno":"0629","name":"녹사평역","routeno":"6호선","location": {"lon":"126.987028473368","lat":"37.5348314193581"}}
{"index": {"_id":"21154"}}
{"id":"21154","stationno":"0630","name":"이태원역","routeno":"6호선","location": {"lon":"126.993721655506","lat":"37.534483277545"}}
{"index": {"_id":"21155"}}
{"id":"21155","stationno":"0631","name":"한강진역","routeno":"6호선","location": {"lon":"127.001748287649","lat":"37.5402951544226"}}
{"index": {"_id":"21156"}}
{"id":"21156","stationno":"0632","name":"버티고개역","routeno":"6호선","location": {"lon":"127.007084969776","lat":"37.5480418375007"}}
{"index": {"_id":"21157"}}
{"id":"21157","stationno":"0633","name":"약수역","routeno":"6호선","location": {"lon":"127.010120543543","lat":"37.5538914380831"}}
{"index": {"_id":"21158"}}
{"id":"21158","stationno":"0634","name":"청구역","routeno":"6호선","location": {"lon":"127.013806006802","lat":"37.5602939125022"}}
{"index": {"_id":"21159"}}
{"id":"21159","stationno":"0635","name":"신당역","routeno":"6호선","location": {"lon":"127.016153533586","lat":"37.5662738884121"}}
{"index": {"_id":"21160"}}
{"id":"21160","stationno":"0636","name":"동묘앞역","routeno":"6호선","location": {"lon":"127.015678133819","lat":"37.5722005208773"}}
{"index": {"_id":"21161"}}
{"id":"21161","stationno":"0637","name":"창신역","routeno":"6호선","location": {"lon":"127.015211194258","lat":"37.5800168892429"}}
{"index": {"_id":"21162"}}
{"id":"21162","stationno":"0638","name":"보문역","routeno":"6호선","location": {"lon":"127.019386983515","lat":"37.5853277238848"}}
{"index": {"_id":"21163"}}
{"id":"21163","stationno":"0639","name":"안암역","routeno":"6호선","location": {"lon":"127.029213030111","lat":"37.5862804833256"}}
{"index": {"_id":"21164"}}
{"id":"21164","stationno":"0640","name":"고려대역","routeno":"6호선","location": {"lon":"127.036284948669","lat":"37.590649686622"}}
{"index": {"_id":"21165"}}
{"id":"21165","stationno":"0641","name":"월곡역","routeno":"6호선","location": {"lon":"127.041184766468","lat":"37.6014210523409"}}
{"index": {"_id":"21166"}}
{"id":"21166","stationno":"0642","name":"상월곡역","routeno":"6호선","location": {"lon":"127.048326622029","lat":"37.6062641394281"}}
{"index": {"_id":"21167"}}
{"id":"21167","stationno":"0643","name":"돌곶이역","routeno":"6호선","location": {"lon":"127.056425217652","lat":"37.610550696559"}}
{"index": {"_id":"21168"}}
{"id":"21168","stationno":"0644","name":"석계역","routeno":"6호선","location": {"lon":"127.066118430844","lat":"37.6150480846952"}}
{"index": {"_id":"21169"}}
{"id":"21169","stationno":"0645","name":"태릉입구역","routeno":"6호선","location": {"lon":"127.075368429731","lat":"37.6185137762138"}}
{"index": {"_id":"21170"}}
{"id":"21170","stationno":"0646","name":"화랑대역","routeno":"6호선","location": {"lon":"127.083744624338","lat":"37.6198943887187"}}
{"index": {"_id":"21171"}}
{"id":"21171","stationno":"0647","name":"봉화산역","routeno":"6호선","location": {"lon":"127.090758129505","lat":"37.6176537624438"}}
{"index": {"_id":"21172"}}
{"id":"21172","stationno":"0648","name":"신내역","routeno":"6호선","location": {"lon":"127.110257980303","lat":"37.6100945305971"}}
{"index": {"_id":"21173"}}
{"id":"21173","stationno":"0709","name":"장암역","routeno":"7호선","location": {"lon":"127.053135359006","lat":"37.7001189599459"}}
{"index": {"_id":"21174"}}
{"id":"21174","stationno":"0710","name":"도봉산역","routeno":"7호선","location": {"lon":"127.046528790935","lat":"37.6891205614059"}}
{"index": {"_id":"21175"}}
{"id":"21175","stationno":"0711","name":"수락산역","routeno":"7호선","location": {"lon":"127.055374584266","lat":"37.6776259369995"}}
{"index": {"_id":"21176"}}
{"id":"21176","stationno":"0712","name":"마들역","routeno":"7호선","location": {"lon":"127.057687709213","lat":"37.6650864331785"}}
{"index": {"_id":"21177"}}
{"id":"21177","stationno":"0713","name":"노원역","routeno":"7호선","location": {"lon":"127.060517410251","lat":"37.6546947161168"}}
{"index": {"_id":"21178"}}
{"id":"21178","stationno":"0714","name":"중계역","routeno":"7호선","location": {"lon":"127.064246723057","lat":"37.6448906789921"}}
{"index": {"_id":"21179"}}
{"id":"21179","stationno":"0715","name":"하계역","routeno":"7호선","location": {"lon":"127.067988537404","lat":"37.6364521240646"}}
{"index": {"_id":"21180"}}
{"id":"21180","stationno":"0716","name":"공릉역","routeno":"7호선","location": {"lon":"127.073005201049","lat":"37.6254769202851"}}
{"index": {"_id":"21181"}}
{"id":"21181","stationno":"0717","name":"태릉입구역","routeno":"7호선","location": {"lon":"127.075368429731","lat":"37.6185137762138"}}
{"index": {"_id":"21182"}}
{"id":"21182","stationno":"0718","name":"먹골역","routeno":"7호선","location": {"lon":"127.077764798784","lat":"37.6106250591244"}}
{"index": {"_id":"21183"}}
{"id":"21183","stationno":"0719","name":"중화역","routeno":"7호선","location": {"lon":"127.079469204905","lat":"37.6015796992834"}}
{"index": {"_id":"21184"}}
{"id":"21184","stationno":"0720","name":"상봉역","routeno":"7호선","location": {"lon":"127.085741817289","lat":"37.5967093285386"}}
{"index": {"_id":"21185"}}
{"id":"21185","stationno":"0721","name":"면목역","routeno":"7호선","location": {"lon":"127.087567841531","lat":"37.5883848968931"}}
{"index": {"_id":"21186"}}
{"id":"21186","stationno":"0722","name":"사가정역","routeno":"7호선","location": {"lon":"127.088439058456","lat":"37.5807945533834"}}
{"index": {"_id":"21187"}}
{"id":"21187","stationno":"0723","name":"용마산역","routeno":"7호선","location": {"lon":"127.087038114766","lat":"37.5740302107904"}}
{"index": {"_id":"21188"}}
{"id":"21188","stationno":"0724","name":"중곡역","routeno":"7호선","location": {"lon":"127.084072412789","lat":"37.5655258842084"}}
{"index": {"_id":"21189"}}
{"id":"21189","stationno":"0725","name":"군자역","routeno":"7호선","location": {"lon":"127.079017279019","lat":"37.5573631939521"}}
{"index": {"_id":"21190"}}
{"id":"21190","stationno":"0726","name":"어린이대공원역","routeno":"7호선","location": {"lon":"127.074549925093","lat":"37.547871203305"}}
{"index": {"_id":"21191"}}
{"id":"21191","stationno":"0727","name":"건대입구역","routeno":"7호선","location": {"lon":"127.07104643853","lat":"37.5408416053893"}}
{"index": {"_id":"21192"}}
{"id":"21192","stationno":"0728","name":"뚝섬유원지역","routeno":"7호선","location": {"lon":"127.06671773793","lat":"37.5315862608622"}}
{"index": {"_id":"21193"}}
{"id":"21193","stationno":"0729","name":"청담역","routeno":"7호선","location": {"lon":"127.05376714677","lat":"37.5194585308732"}}
{"index": {"_id":"21194"}}
{"id":"21194","stationno":"0730","name":"강남구청역","routeno":"7호선","location": {"lon":"127.04130142966","lat":"37.5171892352971"}}
{"index": {"_id":"21195"}}
{"id":"21195","stationno":"0731","name":"학동역","routeno":"7호선","location": {"lon":"127.031463762217","lat":"37.5142064294604"}}
{"index": {"_id":"21196"}}
{"id":"21196","stationno":"0732","name":"논현역","routeno":"7호선","location": {"lon":"127.021657861669","lat":"37.5111988300765"}}
{"index": {"_id":"21197"}}
{"id":"21197","stationno":"0733","name":"반포역","routeno":"7호선","location": {"lon":"127.011497032246","lat":"37.5081263886404"}}
{"index": {"_id":"21198"}}
{"id":"21198","stationno":"0734","name":"고속터미널역","routeno":"7호선","location": {"lon":"127.004949918697","lat":"37.5049267445237"}}
{"index": {"_id":"21199"}}
{"id":"21199","stationno":"0735","name":"내방역","routeno":"7호선","location": {"lon":"126.993190309509","lat":"37.487533528504"}}
{"index": {"_id":"21200"}}
{"id":"21200","stationno":"0736","name":"총신대입구역","routeno":"7호선","location": {"lon":"126.981021812089","lat":"37.485015143952"}}
{"index": {"_id":"21201"}}
{"id":"21201","stationno":"0737","name":"남성역","routeno":"7호선","location": {"lon":"126.971706096071","lat":"37.4844433924857"}}
{"index": {"_id":"21202"}}
{"id":"21202","stationno":"0738","name":"숭실대입구역","routeno":"7호선","location": {"lon":"126.954060246067","lat":"37.4958143308836"}}
{"index": {"_id":"21203"}}
